Grapic Type,Latitude,Longitude,Language Link,ISO 639-3 code,Language Name,Contains Apostrophe,leaflet_id,Radius,Color,Ethnologue Status,Hex Fill Color,Weight,Opacity,FillOpacity
circle,7.115435455078110,5.952827212890610,"<a href=""http://www.ethnologue.com/language/aaa"" target=""_blank"">Ghotuo</a>",aaa,Ghotuo,,lang1,3,e3d000,Robust,fff9b5,1,1,1
circle,9.016444541015630,8.611982748046900,"<a href=""http://www.ethnologue.com/language/aab"" target=""_blank"">Alumu-Tesu</a>",aab,Alumu-Tesu,,lang2,3,e3d000,Robust,fff9b5,1,1,1
circle,-4.048731662109390,141.996655156250000,"<a href=""http://www.ethnologue.com/language/aad"" target=""_blank"">Amal</a>",aad,Amal,,lang4,3,e3d000,Robust,fff9b5,1,1,1
circle,-3.604025453125020,142.535128146484000,"<a href=""http://www.ethnologue.com/language/aag"" target=""_blank"">Ambrak</a>",aag,Ambrak,,lang7,3,e3d000,Robust,fff9b5,1,1,1
circle,-9.176816097656230,149.232563937500000,"<a href=""http://www.ethnologue.com/language/aai"" target=""_blank"">Arifama-Miniafia</a>",aai,Arifama-Miniafia,,lang9,3,e3d000,Robust,fff9b5,1,1,1
circle,-7.204678148437490,145.771312927734000,"<a href=""http://www.ethnologue.com/language/aak"" target=""_blank"">Ankave</a>",aak,Ankave,,lang10,3,e3d000,Robust,fff9b5,1,1,1
circle,12.209392312500000,14.675906244140600,"<a href=""http://www.ethnologue.com/language/aal"" target=""_blank"">Afade</a>",aal,Afade,,lang11,3,e3d000,Robust,fff9b5,1,1,1
circle,28.265722138671900,5.364874972656250,"<a href=""http://www.ethnologue.com/language/aao"" target=""_blank"">Algerian Saharan Spoken Arabic</a>",aao,Algerian Saharan Spoken Arabic,,lang13,3,e3d000,Robust,fff9b5,1,1,1
circle,-3.741790345703120,-53.130711478515700,"<a href=""http://www.ethnologue.com/language/aap"" target=""_blank"">Pará Arára</a>",aap,Pará Arára,,lang14,3,e3d000,Robust,fff9b5,1,1,1
circle,11.996329375000000,41.225020992187500,"<a href=""http://www.ethnologue.com/language/aar"" target=""_blank"">Afar</a>",aar,Afar,,lang15,3,e3d000,Robust,fff9b5,1,1,1
circle,-4.043460714843770,141.182783187500000,"<a href=""http://www.ethnologue.com/language/aau"" target=""_blank"">Abau</a>",aau,Abau,,lang18,3,e3d000,Robust,fff9b5,1,1,1
circle,-5.906383492187500,148.878868755859000,"<a href=""http://www.ethnologue.com/language/aaw"" target=""_blank"">Solong</a>",aaw,Solong,,lang19,3,e3d000,Robust,fff9b5,1,1,1
circle,-6.003653244140650,140.515205312500000,"<a href=""http://www.ethnologue.com/language/aax"" target=""_blank"">Mandobo Atas</a>",aax,Mandobo Atas,,lang20,3,e3d000,Robust,fff9b5,1,1,1
circle,-10.234091171875000,123.896823714844000,"<a href=""http://www.ethnologue.com/language/aaz"" target=""_blank"">Amarasi</a>",aaz,Amarasi,,lang21,3,e3d000,Robust,fff9b5,1,1,1
circle,5.918667830078110,-4.290896646484380,"<a href=""http://www.ethnologue.com/language/aba"" target=""_blank"">Abé</a>",aba,Abé,,lang22,3,e3d000,Robust,fff9b5,1,1,1
circle,4.378220951171900,9.649806683593740,"<a href=""http://www.ethnologue.com/language/abb"" target=""_blank"">Bankon</a>",abb,Bankon,,lang23,3,e3d000,Robust,fff9b5,1,1,1
circle,14.862610650390600,120.285022001953000,"<a href=""http://www.ethnologue.com/language/abc"" target=""_blank"">Ambala Ayta</a>",abc,Ambala Ayta,,lang24,3,e3d000,Robust,fff9b5,1,1,1
circle,14.157391095703100,122.834149972656000,"<a href=""http://www.ethnologue.com/language/abd"" target=""_blank"">Manide</a>",abd,Manide,,lang25,3,e3d000,Robust,fff9b5,1,1,1
circle,5.637315591796890,-4.580560650390620,"<a href=""http://www.ethnologue.com/language/abi"" target=""_blank"">Abidji</a>",abi,Abidji,,lang30,3,e3d000,Robust,fff9b5,1,1,1
circle,43.292252511718700,40.761833716796900,"<a href=""http://www.ethnologue.com/language/abk"" target=""_blank"">Abkhaz</a>",abk,Abkhaz,,lang31,3,e3d000,Robust,fff9b5,1,1,1
circle,-4.488848044921890,105.298770720703000,"<a href=""http://www.ethnologue.com/language/abl"" target=""_blank"">Lampung Nyo</a>",abl,Lampung Nyo,,lang32,3,e3d000,Robust,fff9b5,1,1,1
circle,6.246885619140640,8.656973978515620,"<a href=""http://www.ethnologue.com/language/abm"" target=""_blank"">Abanyom</a>",abm,Abanyom,,lang33,3,e3d000,Robust,fff9b5,1,1,1
circle,4.818437027343750,6.628815957031240,"<a href=""http://www.ethnologue.com/language/abn"" target=""_blank"">Abua</a>",abn,Abua,,lang34,3,e3d000,Robust,fff9b5,1,1,1
circle,6.988579691406240,10.807663546875000,"<a href=""http://www.ethnologue.com/language/abo"" target=""_blank"">Abon</a>",abo,Abon,,lang35,3,e3d000,Robust,fff9b5,1,1,1
circle,15.409973640625000,120.196388546875000,"<a href=""http://www.ethnologue.com/language/abp"" target=""_blank"">Abellen Ayta</a>",abp,Abellen Ayta,,lang36,3,e3d000,Robust,fff9b5,1,1,1
circle,44.221683775390600,41.889524724609400,"<a href=""http://www.ethnologue.com/language/abq"" target=""_blank"">Abaza</a>",abq,Abaza,,lang37,3,e3d000,Robust,fff9b5,1,1,1
circle,7.628556039062520,-2.119738999999980,"<a href=""http://www.ethnologue.com/language/abr"" target=""_blank"">Abron</a>",abr,Abron,,lang38,3,e3d000,Robust,fff9b5,1,1,1
circle,-3.401888750000010,128.550988250000000,"<a href=""http://www.ethnologue.com/language/abs"" target=""_blank"">Ambonese Malay</a>",abs,Ambonese Malay,,lang39,3,e3d000,Robust,fff9b5,1,1,1
circle,-3.789515917968740,143.089068574219000,"<a href=""http://www.ethnologue.com/language/abt"" target=""_blank"">Ambulas</a>",abt,Ambulas,,lang40,3,e3d000,Robust,fff9b5,1,1,1
circle,5.254712228515640,-3.463213349609360,"<a href=""http://www.ethnologue.com/language/abu"" target=""_blank"">Abure</a>",abu,Abure,,lang41,3,e3d000,Robust,fff9b5,1,1,1
circle,25.942041208984400,50.552096500000000,"<a href=""http://www.ethnologue.com/language/abv"" target=""_blank"">Baharna Spoken Arabic</a>",abv,Baharna Spoken Arabic,,lang42,3,e3d000,Robust,fff9b5,1,1,1
circle,-4.882661371093770,145.235078500000000,"<a href=""http://www.ethnologue.com/language/abw"" target=""_blank"">Pal</a>",abw,Pal,,lang43,3,e3d000,Robust,fff9b5,1,1,1
circle,12.428564783203100,124.164342189453000,"<a href=""http://www.ethnologue.com/language/abx"" target=""_blank"">Inabaknon</a>",abx,Inabaknon,,lang44,3,e3d000,Robust,fff9b5,1,1,1
circle,-9.796336800781260,148.532502544922000,"<a href=""http://www.ethnologue.com/language/aby"" target=""_blank"">Aneme Wake</a>",aby,Aneme Wake,,lang45,3,e3d000,Robust,fff9b5,1,1,1
circle,-8.310776394531270,124.593763046875000,"<a href=""http://www.ethnologue.com/language/abz"" target=""_blank"">Abui</a>",abz,Abui,,lang46,3,e3d000,Robust,fff9b5,1,1,1
circle,6.663834867187520,11.109182044921900,"<a href=""http://www.ethnologue.com/language/acb"" target=""_blank"">Áncá</a>",acb,Áncá,,lang48,3,e3d000,Robust,fff9b5,1,1,1
circle,8.382793339843770,0.562471330078097,"<a href=""http://www.ethnologue.com/language/acd"" target=""_blank"">Gikyode</a>",acd,Gikyode,,lang49,3,e3d000,Robust,fff9b5,1,1,1
circle,4.511211248046890,95.896458000000000,"<a href=""http://www.ethnologue.com/language/ace"" target=""_blank"">Aceh</a>",ace,Aceh,,lang50,3,e3d000,Robust,fff9b5,1,1,1
circle,15.423829779296900,-61.357226925781300,"<a href=""http://www.ethnologue.com/language/acf"" target=""_blank"">Dominican Creole French</a>",acf,Dominican Creole French,,lang51,3,e3d000,Robust,fff9b5,1,1,1
circle,3.093645730468720,32.636733017578100,"<a href=""http://www.ethnologue.com/language/ach"" target=""_blank"">Acholi</a>",ach,Acholi,,lang52,3,e3d000,Robust,fff9b5,1,1,1
circle,31.564377226562500,46.827629500000000,"<a href=""http://www.ethnologue.com/language/acm"" target=""_blank"">Mesopotamian Spoken Arabic</a>",acm,Mesopotamian Spoken Arabic,,lang53,3,e3d000,Robust,fff9b5,1,1,1
circle,10.669866984375000,5.989605562500000,"<a href=""http://www.ethnologue.com/language/acp"" target=""_blank"">Eastern Acipa</a>",acp,Eastern Acipa,,lang54,3,e3d000,Robust,fff9b5,1,1,1
circle,13.773945009765600,43.741212804687500,"<a href=""http://www.ethnologue.com/language/acq"" target=""_blank"">Ta\u0027izzi-Adeni Spoken Arabic</a>",acq,Ta’izzi-Adeni Spoken Arabic,Yes,lang55,3,e3d000,Robust,fff9b5,1,1,1
circle,15.116778789062500,-90.487736056640600,"<a href=""http://www.ethnologue.com/language/acr"" target=""_blank"">Achi</a>",acr,Achi,,lang56,3,e3d000,Robust,fff9b5,1,1,1
circle,52.048648291015600,6.458373474609350,"<a href=""http://www.ethnologue.com/language/act"" target=""_blank"">Achterhoeks</a>",act,Achterhoeks,,lang57,3,e3d000,Robust,fff9b5,1,1,1
circle,-2.744227005859390,-77.342175570312500,"<a href=""http://www.ethnologue.com/language/acu"" target=""_blank"">Achuar-Shiwiar</a>",acu,Achuar-Shiwiar,,lang58,3,e3d000,Robust,fff9b5,1,1,1
circle,23.698939914062500,39.177440804687500,"<a href=""http://www.ethnologue.com/language/acw"" target=""_blank"">Hijazi Spoken Arabic</a>",acw,Hijazi Spoken Arabic,,lang60,3,e3d000,Robust,fff9b5,1,1,1
circle,23.307796533203100,57.651932599609400,"<a href=""http://www.ethnologue.com/language/acx"" target=""_blank"">Omani Spoken Arabic</a>",acx,Omani Spoken Arabic,,lang61,3,e3d000,Robust,fff9b5,1,1,1
circle,10.893007986328100,30.194596730468700,"<a href=""http://www.ethnologue.com/language/acz"" target=""_blank"">Acheron</a>",acz,Acheron,,lang63,3,e3d000,Robust,fff9b5,1,1,1
circle,5.944448337890610,0.131576499999994,"<a href=""http://www.ethnologue.com/language/ada"" target=""_blank"">Dangme</a>",ada,Dangme,,lang64,3,e3d000,Robust,fff9b5,1,1,1
circle,-8.230190355468780,125.584405986328000,"<a href=""http://www.ethnologue.com/language/adb"" target=""_blank"">Adabe</a>",adb,Adabe,,lang65,3,e3d000,Robust,fff9b5,1,1,1
circle,6.709854974609360,10.888626898437500,"<a href=""http://www.ethnologue.com/language/add"" target=""_blank"">Dzodinka</a>",add,Dzodinka,,lang66,3,e3d000,Robust,fff9b5,1,1,1
circle,8.170457707031230,0.635734312500006,"<a href=""http://www.ethnologue.com/language/ade"" target=""_blank"">Adele</a>",ade,Adele,,lang67,3,e3d000,Robust,fff9b5,1,1,1
circle,17.079582218750000,54.489360500000000,"<a href=""http://www.ethnologue.com/language/adf"" target=""_blank"">Dhofari Spoken Arabic</a>",adf,Dhofari Spoken Arabic,,lang68,3,e3d000,Robust,fff9b5,1,1,1
circle,0.718143353515643,34.029613972656300,"<a href=""http://www.ethnologue.com/language/adh"" target=""_blank"">Adhola</a>",adh,Adhola,,lang70,3,e3d000,Robust,fff9b5,1,1,1
circle,5.377108662109380,-4.524904197265640,"<a href=""http://www.ethnologue.com/language/adj"" target=""_blank"">Adioukrou</a>",adj,Adioukrou,,lang72,3,e3d000,Robust,fff9b5,1,1,1
circle,28.106590263671900,94.799222773437500,"<a href=""http://www.ethnologue.com/language/adl"" target=""_blank"">Galo Adi</a>",adl,Galo Adi,,lang73,3,e3d000,Robust,fff9b5,1,1,1
circle,-8.189075664062500,124.452631771484000,"<a href=""http://www.ethnologue.com/language/adn"" target=""_blank"">Adang</a>",adn,Adang,,lang74,3,e3d000,Robust,fff9b5,1,1,1
circle,-4.238575386718770,144.495750117188000,"<a href=""http://www.ethnologue.com/language/ado"" target=""_blank"">Abu</a>",ado,Abu,,lang75,3,e3d000,Robust,fff9b5,1,1,1
circle,-8.328296027343750,123.164818890625000,"<a href=""http://www.ethnologue.com/language/adr"" target=""_blank"">Adonara</a>",adr,Adonara,,lang77,3,e3d000,Robust,fff9b5,1,1,1
circle,7.635197652343720,6.114936212890600,"<a href=""http://www.ethnologue.com/language/adu"" target=""_blank"">Aduge</a>",adu,Aduge,,lang79,3,e3d000,Robust,fff9b5,1,1,1
circle,44.423655951171900,40.228840250000000,"<a href=""http://www.ethnologue.com/language/ady"" target=""_blank"">Adyghe</a>",ady,Adyghe,,lang81,3,e3d000,Robust,fff9b5,1,1,1
circle,-6.340779861328140,146.270164066406000,"<a href=""http://www.ethnologue.com/language/adz"" target=""_blank"">Adzera</a>",adz,Adzera,,lang82,3,e3d000,Robust,fff9b5,1,1,1
circle,34.120375716796900,9.572598105468730,"<a href=""http://www.ethnologue.com/language/aeb"" target=""_blank"">Tunisian Spoken Arabic</a>",aeb,Tunisian Spoken Arabic,,lang83,3,e3d000,Robust,fff9b5,1,1,1
circle,25.413217583984400,30.530161000000000,"<a href=""http://www.ethnologue.com/language/aec"" target=""_blank"">Sa\u0027idi Spoken Arabic</a>",aec,Sa’idi Spoken Arabic,Yes,lang84,3,e3d000,Robust,fff9b5,1,1,1
circle,34.788272503906200,70.798873507812500,"<a href=""http://www.ethnologue.com/language/aee"" target=""_blank"">Northeast Pashayi</a>",aee,Northeast Pashayi,,lang85,3,e3d000,Robust,fff9b5,1,1,1
circle,5.975421066406230,9.659676822265620,"<a href=""http://www.ethnologue.com/language/ael"" target=""_blank"">Ambele</a>",ael,Ambele,,lang87,3,e3d000,Robust,fff9b5,1,1,1
circle,-23.358012798828100,135.048699267578000,"<a href=""http://www.ethnologue.com/language/aer"" target=""_blank"">Eastern Arrernte</a>",aer,Eastern Arrernte,,lang90,3,e3d000,Robust,fff9b5,1,1,1
circle,-5.276465935546870,145.704352304688000,"<a href=""http://www.ethnologue.com/language/aey"" target=""_blank"">Amele</a>",aey,Amele,,lang92,3,e3d000,Robust,fff9b5,1,1,1
circle,-8.627231691406280,147.986058947266000,"<a href=""http://www.ethnologue.com/language/aez"" target=""_blank"">Aeka</a>",aez,Aeka,,lang93,3,e3d000,Robust,fff9b5,1,1,1
circle,20.941580566406200,56.260973750000000,"<a href=""http://www.ethnologue.com/language/afb"" target=""_blank"">Gulf Spoken Arabic</a>",afb,Gulf Spoken Arabic,,lang94,3,e3d000,Robust,fff9b5,1,1,1
circle,-4.915595423828110,143.535400044922000,"<a href=""http://www.ethnologue.com/language/afd"" target=""_blank"">Andai</a>",afd,Andai,,lang95,3,e3d000,Robust,fff9b5,1,1,1
circle,6.613374119140640,8.982003632812510,"<a href=""http://www.ethnologue.com/language/afe"" target=""_blank"">Utugwang-Irungene-Afrike</a>",afe,Utugwang-Irungene-Afrike,,lang96,3,e3d000,Robust,fff9b5,1,1,1
circle,-4.888496339843750,144.823540818359000,"<a href=""http://www.ethnologue.com/language/afi"" target=""_blank"">Akrukay</a>",afi,Akrukay,,lang97,3,e3d000,Robust,fff9b5,1,1,1
circle,-4.695324730468770,143.607654703125000,"<a href=""http://www.ethnologue.com/language/afk"" target=""_blank"">Nanubae</a>",afk,Nanubae,,lang98,3,e3d000,Robust,fff9b5,1,1,1
circle,8.250455316406260,7.959184595703110,"<a href=""http://www.ethnologue.com/language/afo"" target=""_blank"">Eloyi</a>",afo,Eloyi,,lang100,3,e3d000,Robust,fff9b5,1,1,1
circle,-4.773358667968750,143.606011914062000,"<a href=""http://www.ethnologue.com/language/afp"" target=""_blank"">Tapei</a>",afp,Tapei,,lang101,3,e3d000,Robust,fff9b5,1,1,1
circle,-26.334631173828100,21.618867500000000,"<a href=""http://www.ethnologue.com/language/afr"" target=""_blank"">Afrikaans</a>",afr,Afrikaans,,lang102,3,e3d000,Robust,fff9b5,1,1,1
circle,5.424408203124980,-0.595458000000008,"<a href=""http://www.ethnologue.com/language/afu"" target=""_blank"">Awutu</a>",afu,Awutu,,lang105,3,e3d000,Robust,fff9b5,1,1,1
circle,5.932340189453100,8.020542499999980,"<a href=""http://www.ethnologue.com/language/agb"" target=""_blank"">Legbo</a>",agb,Legbo,,lang107,3,e3d000,Robust,fff9b5,1,1,1
circle,7.907624296874990,7.752945304687500,"<a href=""http://www.ethnologue.com/language/agc"" target=""_blank"">Agatu</a>",agc,Agatu,,lang108,3,e3d000,Robust,fff9b5,1,1,1
circle,-6.192608632812490,145.911349617188000,"<a href=""http://www.ethnologue.com/language/agd"" target=""_blank"">Agarabi</a>",agd,Agarabi,,lang109,3,e3d000,Robust,fff9b5,1,1,1
circle,-6.019127544921900,143.607096238281000,"<a href=""http://www.ethnologue.com/language/age"" target=""_blank"">Angal</a>",age,Angal,,lang110,3,e3d000,Robust,fff9b5,1,1,1
circle,-3.712434191406260,141.198566601562000,"<a href=""http://www.ethnologue.com/language/agg"" target=""_blank"">Angor</a>",agg,Angor,,lang112,3,e3d000,Robust,fff9b5,1,1,1
circle,1.674716591796880,24.706222039062500,"<a href=""http://www.ethnologue.com/language/agh"" target=""_blank"">Ngelima</a>",agh,Ngelima,,lang113,3,e3d000,Robust,fff9b5,1,1,1
circle,24.550029523437500,81.917394880859400,"<a href=""http://www.ethnologue.com/language/agi"" target=""_blank"">Agariya</a>",agi,Agariya,,lang114,3,e3d000,Robust,fff9b5,1,1,1
circle,-5.707015744140620,142.255717679687000,"<a href=""http://www.ethnologue.com/language/agl"" target=""_blank"">Fembe</a>",agl,Fembe,,lang117,3,e3d000,Robust,fff9b5,1,1,1
circle,-7.206246951171860,146.235303974609000,"<a href=""http://www.ethnologue.com/language/agm"" target=""_blank"">Angaataha</a>",agm,Angaataha,,lang118,3,e3d000,Robust,fff9b5,1,1,1
circle,10.379777009765600,119.432305240234000,"<a href=""http://www.ethnologue.com/language/agn"" target=""_blank"">Agutaynen</a>",agn,Agutaynen,,lang119,3,e3d000,Robust,fff9b5,1,1,1
circle,-7.417959921875020,145.702600023438000,"<a href=""http://www.ethnologue.com/language/ago"" target=""_blank"">Tainae</a>",ago,Tainae,,lang120,3,e3d000,Robust,fff9b5,1,1,1
circle,6.387359205078100,10.075476589843700,"<a href=""http://www.ethnologue.com/language/agq"" target=""_blank"">Aghem</a>",agq,Aghem,,lang121,3,e3d000,Robust,fff9b5,1,1,1
circle,-5.241230882812490,-77.992183730468800,"<a href=""http://www.ethnologue.com/language/agr"" target=""_blank"">Aguaruna</a>",agr,Aguaruna,,lang122,3,e3d000,Robust,fff9b5,1,1,1
circle,6.503925357421850,9.854359673828130,"<a href=""http://www.ethnologue.com/language/ags"" target=""_blank"">Esimbi</a>",ags,Esimbi,,lang123,3,e3d000,Robust,fff9b5,1,1,1
circle,17.960077019531200,121.867338294922000,"<a href=""http://www.ethnologue.com/language/agt"" target=""_blank"">Central Cagayan Agta</a>",agt,Central Cagayan Agta,,lang124,3,e3d000,Robust,fff9b5,1,1,1
circle,15.338728080078100,-91.316613390625000,"<a href=""http://www.ethnologue.com/language/agu"" target=""_blank"">Awakateko</a>",agu,Awakateko,,lang125,3,e3d000,Robust,fff9b5,1,1,1
circle,-10.680257730468700,162.163603441406000,"<a href=""http://www.ethnologue.com/language/agw"" target=""_blank"">Kahua</a>",agw,Kahua,,lang127,3,e3d000,Robust,fff9b5,1,1,1
circle,41.930849072265600,47.554015785156300,"<a href=""http://www.ethnologue.com/language/agx"" target=""_blank"">Aghul</a>",agx,Aghul,,lang128,3,e3d000,Robust,fff9b5,1,1,1
circle,15.189520453125000,121.056052964844000,"<a href=""http://www.ethnologue.com/language/agy"" target=""_blank"">Southern Alta</a>",agy,Southern Alta,,lang129,3,e3d000,Robust,fff9b5,1,1,1
circle,13.440796878906300,123.470583935547000,"<a href=""http://www.ethnologue.com/language/agz"" target=""_blank"">Mt. Iriga Agta</a>",agz,Mt. Iriga Agta,,lang130,3,e3d000,Robust,fff9b5,1,1,1
circle,4.859597025390600,-1.944752662109350,"<a href=""http://www.ethnologue.com/language/aha"" target=""_blank"">Ahanta</a>",aha,Ahanta,,lang131,3,e3d000,Robust,fff9b5,1,1,1
circle,-16.495119095703100,167.706005642578000,"<a href=""http://www.ethnologue.com/language/ahb"" target=""_blank"">Axamb</a>",ahb,Axamb,,lang132,3,e3d000,Robust,fff9b5,1,1,1
circle,12.814406609375000,37.064781326171900,"<a href=""http://www.ethnologue.com/language/ahg"" target=""_blank"">Qimant</a>",ahg,Qimant,,lang133,3,e3d000,Robust,fff9b5,1,1,1
circle,5.266238718750000,-4.639872148437520,"<a href=""http://www.ethnologue.com/language/ahi"" target=""_blank"">Tiagbamrin Aizi</a>",ahi,Tiagbamrin Aizi,,lang135,3,e3d000,Robust,fff9b5,1,1,1
circle,20.927395859375000,100.101882000000000,"<a href=""http://www.ethnologue.com/language/ahk"" target=""_blank"">Akha</a>",ahk,Akha,,lang136,3,e3d000,Robust,fff9b5,1,1,1
circle,7.250433849609350,0.679588789062507,"<a href=""http://www.ethnologue.com/language/ahl"" target=""_blank"">Igo</a>",ahl,Igo,,lang137,3,e3d000,Robust,fff9b5,1,1,1
circle,5.271309404296860,-4.472746974609380,"<a href=""http://www.ethnologue.com/language/ahm"" target=""_blank"">Mobumrin Aizi</a>",ahm,Mobumrin Aizi,,lang138,3,e3d000,Robust,fff9b5,1,1,1
circle,7.751601230468740,5.823669507812500,"<a href=""http://www.ethnologue.com/language/ahn"" target=""_blank"">Àhàn</a>",ahn,Àhàn,,lang139,3,e3d000,Robust,fff9b5,1,1,1
circle,5.212635652343750,-4.523998796874990,"<a href=""http://www.ethnologue.com/language/ahp"" target=""_blank"">Aproumu Aizi</a>",ahp,Aproumu Aizi,,lang140,3,e3d000,Robust,fff9b5,1,1,1
circle,5.575436892578130,8.110565160156230,"<a href=""http://www.ethnologue.com/language/akd"" target=""_blank"">Ukpet-Ehom</a>",akd,Ukpet-Ehom,,lang170,3,e3d000,Robust,fff9b5,1,1,1
circle,7.328615371093750,7.992938189453130,"<a href=""http://www.ethnologue.com/language/akf"" target=""_blank"">Akpa</a>",akf,Akpa,,lang172,3,e3d000,Robust,fff9b5,1,1,1
circle,-9.658232232421880,119.618495828125000,"<a href=""http://www.ethnologue.com/language/akg"" target=""_blank"">Anakalangu</a>",akg,Anakalangu,,lang173,3,e3d000,Robust,fff9b5,1,1,1
circle,-6.121227320312530,143.462384199219000,"<a href=""http://www.ethnologue.com/language/akh"" target=""_blank"">Angal Heneng</a>",akh,Angal Heneng,,lang174,3,e3d000,Robust,fff9b5,1,1,1
circle,-5.144695927734400,144.773337509766000,"<a href=""http://www.ethnologue.com/language/aki"" target=""_blank"">Aiome</a>",aki,Aiome,,lang175,3,e3d000,Robust,fff9b5,1,1,1
circle,11.558410322265600,122.331838195312000,"<a href=""http://www.ethnologue.com/language/akl"" target=""_blank"">Inakeanon</a>",akl,Inakeanon,,lang176,3,e3d000,Robust,fff9b5,1,1,1
circle,7.190199955078130,0.502198500000020,"<a href=""http://www.ethnologue.com/language/akp"" target=""_blank"">Siwu</a>",akp,Siwu,,lang178,3,e3d000,Robust,fff9b5,1,1,1
circle,-2.110526789062480,146.397907632812000,"<a href=""http://www.ethnologue.com/language/biq"" target=""_blank"">Bipi</a>",biq,Bipi,,lang181,3,e3d000,Robust,fff9b5,1,1,1
circle,-4.826888906250020,143.243285781250000,"<a href=""http://www.ethnologue.com/language/bir"" target=""_blank"">Bisorio</a>",bir,Bisorio,,lang182,3,e3d000,Robust,fff9b5,1,1,1
circle,-4.422189851562510,142.458546152344000,"<a href=""http://www.ethnologue.com/language/bit"" target=""_blank"">Berinomo</a>",bit,Berinomo,,lang184,3,e3d000,Robust,fff9b5,1,1,1
circle,25.487276164062500,92.785671658203100,"<a href=""http://www.ethnologue.com/language/biu"" target=""_blank"">Biete</a>",biu,Biete,,lang185,3,e3d000,Robust,fff9b5,1,1,1
circle,9.279453185546860,-2.722653999999980,"<a href=""http://www.ethnologue.com/language/biv"" target=""_blank"">Southern Birifor</a>",biv,Southern Birifor,,lang186,3,e3d000,Robust,fff9b5,1,1,1
circle,3.653953527343730,12.821554238281200,"<a href=""http://www.ethnologue.com/language/biw"" target=""_blank"">Kol</a>",biw,Kol,,lang187,3,e3d000,Robust,fff9b5,1,1,1
circle,23.531361404296900,84.411733957031200,"<a href=""http://www.ethnologue.com/language/bix"" target=""_blank"">Bijori</a>",bix,Bijori,,lang188,3,e3d000,Robust,fff9b5,1,1,1
circle,23.675644369140600,84.812762457031200,"<a href=""http://www.ethnologue.com/language/biy"" target=""_blank"">Birhor</a>",biy,Birhor,,lang189,3,e3d000,Robust,fff9b5,1,1,1
circle,0.935905722656230,18.117064785156200,"<a href=""http://www.ethnologue.com/language/biz"" target=""_blank"">Baloi</a>",biz,Baloi,,lang190,3,e3d000,Robust,fff9b5,1,1,1
circle,2.466269001953090,22.491980218750000,"<a href=""http://www.ethnologue.com/language/bja"" target=""_blank"">Budza</a>",bja,Budza,,lang191,3,e3d000,Robust,fff9b5,1,1,1
circle,-9.268622845703130,148.470606134766000,"<a href=""http://www.ethnologue.com/language/bjc"" target=""_blank"">Bariji</a>",bjc,Bariji,,lang192,3,e3d000,Robust,fff9b5,1,1,1
circle,11.102977955078100,-16.139001042968700,"<a href=""http://www.ethnologue.com/language/bjg"" target=""_blank"">Bidyogo</a>",bjg,Bidyogo,,lang193,3,e3d000,Robust,fff9b5,1,1,1
circle,-4.489738376953140,142.743855324219000,"<a href=""http://www.ethnologue.com/language/bjh"" target=""_blank"">Bahinemo</a>",bjh,Bahinemo,,lang194,3,e3d000,Robust,fff9b5,1,1,1
circle,5.421876056640600,37.839845775390600,"<a href=""http://www.ethnologue.com/language/bji"" target=""_blank"">Burji</a>",bji,Burji,,lang195,3,e3d000,Robust,fff9b5,1,1,1
circle,-3.427723605468770,152.095641410156000,"<a href=""http://www.ethnologue.com/language/bjk"" target=""_blank"">Barok</a>",bjk,Barok,,lang197,3,e3d000,Robust,fff9b5,1,1,1
circle,-5.060096474609400,150.094676951172000,"<a href=""http://www.ethnologue.com/language/bjl"" target=""_blank"">Bulu</a>",bjl,Bulu,,lang198,3,e3d000,Robust,fff9b5,1,1,1
circle,-2.728749207031230,114.346519970703000,"<a href=""http://www.ethnologue.com/language/bjn"" target=""_blank"">Banjar</a>",bjn,Banjar,,lang199,3,e3d000,Robust,fff9b5,1,1,1
circle,5.079798951171880,20.947849000000000,"<a href=""http://www.ethnologue.com/language/bjo"" target=""_blank"">Mid-Southern Banda</a>",bjo,Mid-Southern Banda,,lang200,3,e3d000,Robust,fff9b5,1,1,1
circle,-6.219791623046890,146.102255529297000,"<a href=""http://www.ethnologue.com/language/bjr"" target=""_blank"">Binumarien</a>",bjr,Binumarien,,lang201,3,e3d000,Robust,fff9b5,1,1,1
circle,13.136484138671800,-59.534649500000000,"<a href=""http://www.ethnologue.com/language/bjs"" target=""_blank"">Bajan</a>",bjs,Bajan,,lang202,3,e3d000,Robust,fff9b5,1,1,1
circle,12.534658671875000,-15.691593863281200,"<a href=""http://www.ethnologue.com/language/bjt"" target=""_blank"">Balanta-Ganja</a>",bjt,Balanta-Ganja,,lang203,3,e3d000,Robust,fff9b5,1,1,1
circle,8.563548564453130,17.264239001953100,"<a href=""http://www.ethnologue.com/language/bjv"" target=""_blank"">Bedjond</a>",bjv,Bedjond,,lang204,3,e3d000,Robust,fff9b5,1,1,1
circle,5.295173144531250,-6.575465386718750,"<a href=""http://www.ethnologue.com/language/bjw"" target=""_blank"">Bakwé</a>",bjw,Bakwé,,lang205,3,e3d000,Robust,fff9b5,1,1,1
circle,17.514712925781200,121.118655609375000,"<a href=""http://www.ethnologue.com/language/bjx"" target=""_blank"">Banao Itneg</a>",bjx,Banao Itneg,,lang206,3,e3d000,Robust,fff9b5,1,1,1
circle,-9.401319406250020,148.761408500000000,"<a href=""http://www.ethnologue.com/language/bjz"" target=""_blank"">Baruga</a>",bjz,Baruga,,lang207,3,e3d000,Robust,fff9b5,1,1,1
circle,9.527330179687510,11.378699708984400,"<a href=""http://www.ethnologue.com/language/bka"" target=""_blank"">Kyak</a>",bka,Kyak,,lang208,3,e3d000,Robust,fff9b5,1,1,1
circle,-2.794475574218780,141.304016482422000,"<a href=""http://www.ethnologue.com/language/ksi"" target=""_blank"">Isaka</a>",ksi,Isaka,,lang330,3,e3d000,Robust,fff9b5,1,1,1
circle,-9.692009029296860,147.688211888672000,"<a href=""http://www.ethnologue.com/language/ksj"" target=""_blank"">Uare</a>",ksj,Uare,,lang331,3,e3d000,Robust,fff9b5,1,1,1
circle,-6.988494142578130,146.539223500000000,"<a href=""http://www.ethnologue.com/language/ksl"" target=""_blank"">Kumalu</a>",ksl,Kumalu,,lang332,3,e3d000,Robust,fff9b5,1,1,1
circle,8.995174611328140,12.050035876953100,"<a href=""http://www.ethnologue.com/language/ksm"" target=""_blank"">Kumba</a>",ksm,Kumba,,lang333,3,e3d000,Robust,fff9b5,1,1,1
circle,16.322310597656300,122.114338869141000,"<a href=""http://www.ethnologue.com/language/ksn"" target=""_blank"">Kasiguranin</a>",ksn,Kasiguranin,,lang334,3,e3d000,Robust,fff9b5,1,1,1
circle,9.758896406250020,12.885075888671800,"<a href=""http://www.ethnologue.com/language/kso"" target=""_blank"">Kofa</a>",kso,Kofa,,lang335,3,e3d000,Robust,fff9b5,1,1,1
circle,7.582095513671850,16.694799667968800,"<a href=""http://www.ethnologue.com/language/ksp"" target=""_blank"">Kaba</a>",ksp,Kaba,,lang336,3,e3d000,Robust,fff9b5,1,1,1
circle,10.420701814453100,10.988003769531200,"<a href=""http://www.ethnologue.com/language/ksq"" target=""_blank"">Kwaami</a>",ksq,Kwaami,,lang337,3,e3d000,Robust,fff9b5,1,1,1
circle,-6.585434179687520,147.482428736328000,"<a href=""http://www.ethnologue.com/language/ksr"" target=""_blank"">Borong</a>",ksr,Borong,,lang338,3,e3d000,Robust,fff9b5,1,1,1
circle,8.317548818359400,-10.379697308593700,"<a href=""http://www.ethnologue.com/language/kss"" target=""_blank"">Southern Kisi</a>",kss,Southern Kisi,,lang339,3,e3d000,Robust,fff9b5,1,1,1
circle,11.836419580078100,-2.937575412109370,"<a href=""http://www.ethnologue.com/language/kst"" target=""_blank"">Winyé</a>",kst,Winyé,,lang340,3,e3d000,Robust,fff9b5,1,1,1
circle,-3.551448666015630,24.911658500000000,"<a href=""http://www.ethnologue.com/language/ksv"" target=""_blank"">Kusu</a>",ksv,Kusu,,lang342,3,e3d000,Robust,fff9b5,1,1,1
circle,18.289888234375000,97.064429199218800,"<a href=""http://www.ethnologue.com/language/ksw"" target=""_blank"">S\u0027gaw Karen</a>",ksw,S’gaw Karen,Yes,lang343,3,e3d000,Robust,fff9b5,1,1,1
circle,-8.230389318359360,123.769881500000000,"<a href=""http://www.ethnologue.com/language/ksx"" target=""_blank"">Kedang</a>",ksx,Kedang,,lang344,3,e3d000,Robust,fff9b5,1,1,1
circle,23.316911857421900,86.919394304687500,"<a href=""http://www.ethnologue.com/language/ksy"" target=""_blank"">Kharia Thar</a>",ksy,Kharia Thar,,lang345,3,e3d000,Robust,fff9b5,1,1,1
circle,23.762680880859400,83.477199208984400,"<a href=""http://www.ethnologue.com/language/ksz"" target=""_blank"">Kodaku</a>",ksz,Kodaku,,lang346,3,e3d000,Robust,fff9b5,1,1,1
circle,14.896737980468700,108.304906152344000,"<a href=""http://www.ethnologue.com/language/kta"" target=""_blank"">Katua</a>",kta,Katua,,lang347,3,e3d000,Robust,fff9b5,1,1,1
circle,7.375824652343740,37.908775000000000,"<a href=""http://www.ethnologue.com/language/ktb"" target=""_blank"">Kambaata</a>",ktb,Kambaata,,lang348,3,e3d000,Robust,fff9b5,1,1,1
circle,9.499923347656250,11.192669751953100,"<a href=""http://www.ethnologue.com/language/ktc"" target=""_blank"">Kholok</a>",ktc,Kholok,,lang349,3,e3d000,Robust,fff9b5,1,1,1
circle,28.640708888671900,84.645161013671900,"<a href=""http://www.ethnologue.com/language/kte"" target=""_blank"">Nubri</a>",kte,Nubri,,lang351,3,e3d000,Robust,fff9b5,1,1,1
circle,-1.538772197265640,27.462865933593800,"<a href=""http://www.ethnologue.com/language/ktf"" target=""_blank"">Kwami</a>",ktf,Kwami,,lang352,3,e3d000,Robust,fff9b5,1,1,1
circle,0.628655193359350,34.560840000000000,"<a href=""http://www.ethnologue.com/language/bxk"" target=""_blank"">Lubukusu</a>",bxk,Lubukusu,,lang355,3,e3d000,Robust,fff9b5,1,1,1
circle,48.768593189453100,109.005352500000000,"<a href=""http://www.ethnologue.com/language/bxm"" target=""_blank"">Mongolia Buriat</a>",bxm,Mongolia Buriat,,lang357,3,e3d000,Robust,fff9b5,1,1,1
circle,4.851990519531230,13.358530126953100,"<a href=""http://www.ethnologue.com/language/bxp"" target=""_blank"">Bebil</a>",bxp,Bebil,,lang359,3,e3d000,Robust,fff9b5,1,1,1
circle,50.856696525390600,105.643571445312000,"<a href=""http://www.ethnologue.com/language/bxr"" target=""_blank"">Russia Buriat</a>",bxr,Russia Buriat,,lang361,3,e3d000,Robust,fff9b5,1,1,1
circle,11.750330125000000,-5.504103701171860,"<a href=""http://www.ethnologue.com/language/bxw"" target=""_blank"">Bankagooma</a>",bxw,Bankagooma,,lang363,3,e3d000,Robust,fff9b5,1,1,1
circle,-10.087850908203100,148.862389388672000,"<a href=""http://www.ethnologue.com/language/bxz"" target=""_blank"">Binahari</a>",bxz,Binahari,,lang364,3,e3d000,Robust,fff9b5,1,1,1
circle,5.610390583984380,7.978228447265620,"<a href=""http://www.ethnologue.com/language/byc"" target=""_blank"">Ubaghara</a>",byc,Ubaghara,,lang366,3,e3d000,Robust,fff9b5,1,1,1
circle,0.799132724609365,109.598474500000000,"<a href=""http://www.ethnologue.com/language/byd"" target=""_blank"">Benyadu\u0027</a>",byd,Benyadu’,Yes,lang367,3,e3d000,Robust,fff9b5,1,1,1
circle,-3.676758392578110,141.934095644531000,"<a href=""http://www.ethnologue.com/language/bye"" target=""_blank"">Pouye</a>",bye,Pouye,,lang368,3,e3d000,Robust,fff9b5,1,1,1
circle,-4.590455783203140,28.202797500000000,"<a href=""http://www.ethnologue.com/language/byi"" target=""_blank"">Buyu</a>",byi,Buyu,,lang371,3,e3d000,Robust,fff9b5,1,1,1
circle,10.292554462890600,8.200842505859380,"<a href=""http://www.ethnologue.com/language/byj"" target=""_blank"">Bina</a>",byj,Bina,,lang372,3,e3d000,Robust,fff9b5,1,1,1
circle,15.793223007812500,38.383557855468700,"<a href=""http://www.ethnologue.com/language/byn"" target=""_blank"">Bilen</a>",byn,Bilen,,lang374,3,e3d000,Robust,fff9b5,1,1,1
circle,6.455768013671900,9.259577416015650,"<a href=""http://www.ethnologue.com/language/byp"" target=""_blank"">Bumaji</a>",byp,Bumaji,,lang375,3,e3d000,Robust,fff9b5,1,1,1
circle,-6.882836716796870,145.827543244141000,"<a href=""http://www.ethnologue.com/language/byr"" target=""_blank"">Baruya</a>",byr,Baruya,,lang376,3,e3d000,Robust,fff9b5,1,1,1
circle,9.609514205078140,11.262392533203100,"<a href=""http://www.ethnologue.com/language/bys"" target=""_blank"">Burak</a>",bys,Burak,,lang377,3,e3d000,Robust,fff9b5,1,1,1
circle,5.065635203125000,10.592818929687500,"<a href=""http://www.ethnologue.com/language/byv"" target=""_blank"">Medumba</a>",byv,Medumba,,lang378,3,e3d000,Robust,fff9b5,1,1,1
circle,-4.412158814453110,151.718679781250000,"<a href=""http://www.ethnologue.com/language/byx"" target=""_blank"">Qaqet</a>",byx,Qaqet,,lang380,3,e3d000,Robust,fff9b5,1,1,1
circle,17.649900466796900,-96.133498603515600,"<a href=""http://www.ethnologue.com/language/cte"" target=""_blank"">Tepinapa Chinantec</a>",cte,Tepinapa Chinantec,,lang381,3,e3d000,Robust,fff9b5,1,1,1
circle,22.323933375000000,92.114403812500000,"<a href=""http://www.ethnologue.com/language/ctg"" target=""_blank"">Chittagonian</a>",ctg,Chittagonian,,lang382,3,e3d000,Robust,fff9b5,1,1,1
circle,21.797752029296900,93.324179792968700,"<a href=""http://www.ethnologue.com/language/cth"" target=""_blank"">Thaiphum Chin</a>",cth,Thaiphum Chin,,lang383,3,e3d000,Robust,fff9b5,1,1,1
circle,17.862446671875000,-96.513240816406300,"<a href=""http://www.ethnologue.com/language/ctl"" target=""_blank"">Tlacoatzintepec Chinantec</a>",ctl,Tlacoatzintepec Chinantec,,lang384,3,e3d000,Robust,fff9b5,1,1,1
circle,7.354831902343730,-76.250141539062500,"<a href=""http://www.ethnologue.com/language/cto"" target=""_blank"">Emberá-Catío</a>",cto,Emberá-Catío,,lang386,3,e3d000,Robust,fff9b5,1,1,1
circle,16.232937736328100,-97.343930773437500,"<a href=""http://www.ethnologue.com/language/ctp"" target=""_blank"">Western Highland Chatino</a>",ctp,Western Highland Chatino,,lang387,3,e3d000,Robust,fff9b5,1,1,1
circle,13.913011890625000,124.248590791016000,"<a href=""http://www.ethnologue.com/language/cts"" target=""_blank"">Northern Catanduanes Bikol</a>",cts,Northern Catanduanes Bikol,,lang388,3,e3d000,Robust,fff9b5,1,1,1
circle,11.670160080078100,76.370408396484400,"<a href=""http://www.ethnologue.com/language/ctt"" target=""_blank"">Wayanad Chetti</a>",ctt,Wayanad Chetti,,lang389,3,e3d000,Robust,fff9b5,1,1,1
circle,17.483895515625000,-92.375592296875000,"<a href=""http://www.ethnologue.com/language/ctu"" target=""_blank"">Chol</a>",ctu,Chol,,lang390,3,e3d000,Robust,fff9b5,1,1,1
circle,17.924515371093800,-96.402717755859400,"<a href=""http://www.ethnologue.com/language/cuc"" target=""_blank"">Usila Chinantec</a>",cuc,Usila Chinantec,,lang394,3,e3d000,Robust,fff9b5,1,1,1
circle,6.596739445312490,10.413152169921900,"<a href=""http://www.ethnologue.com/language/cug"" target=""_blank"">Cung</a>",cug,Cung,,lang395,3,e3d000,Robust,fff9b5,1,1,1
circle,-0.287469349609353,37.672303123046800,"<a href=""http://www.ethnologue.com/language/cuh"" target=""_blank"">Gichuka</a>",cuh,Gichuka,,lang396,3,e3d000,Robust,fff9b5,1,1,1
circle,6.257727175781270,-70.109432648437500,"<a href=""http://www.ethnologue.com/language/cui"" target=""_blank"">Cuiba</a>",cui,Cuiba,,lang397,3,e3d000,Robust,fff9b5,1,1,1
circle,9.156861375000010,-78.307497000000000,"<a href=""http://www.ethnologue.com/language/cuk"" target=""_blank"">San Blas Kuna</a>",cuk,San Blas Kuna,,lang399,3,e3d000,Robust,fff9b5,1,1,1
circle,10.653570523437500,13.947832187500000,"<a href=""http://www.ethnologue.com/language/cuv"" target=""_blank"">Cuvok</a>",cuv,Cuvok,,lang403,3,e3d000,Robust,fff9b5,1,1,1
circle,17.758021748046900,-96.776938623046900,"<a href=""http://www.ethnologue.com/language/cux"" target=""_blank"">Tepeuxila Cuicatec</a>",cux,Tepeuxila Cuicatec,,lang405,3,e3d000,Robust,fff9b5,1,1,1
circle,27.473755375000000,92.226744783203100,"<a href=""http://www.ethnologue.com/language/cvg"" target=""_blank"">Chug</a>",cvg,Chug,,lang406,3,e3d000,Robust,fff9b5,1,1,1
circle,-18.383333175781300,36.557910705078100,"<a href=""http://www.ethnologue.com/language/cwb"" target=""_blank"">Maindo</a>",cwb,Maindo,,lang409,3,e3d000,Robust,fff9b5,1,1,1
circle,12.485770728515600,-16.750225687500000,"<a href=""http://www.ethnologue.com/language/cwt"" target=""_blank"">Kuwaataay</a>",cwt,Kuwaataay,,lang413,3,e3d000,Robust,fff9b5,1,1,1
circle,16.099874662109400,-97.135147644531200,"<a href=""http://www.ethnologue.com/language/cya"" target=""_blank"">Nopala Chatino</a>",cya,Nopala Chatino,,lang414,3,e3d000,Robust,fff9b5,1,1,1
circle,52.022253759765600,-3.670056999999990,"<a href=""http://www.ethnologue.com/language/cym"" target=""_blank"">Welsh</a>",cym,Welsh,,lang415,3,e3d000,Robust,fff9b5,1,1,1
circle,10.558359789062500,119.575054750000000,"<a href=""http://www.ethnologue.com/language/cyo"" target=""_blank"">Cuyonon</a>",cyo,Cuyonon,,lang416,3,e3d000,Robust,fff9b5,1,1,1
circle,16.520716794921900,-97.461018376953100,"<a href=""http://www.ethnologue.com/language/czn"" target=""_blank"">Zenzontepec Chatino</a>",czn,Zenzontepec Chatino,,lang417,3,e3d000,Robust,fff9b5,1,1,1
circle,21.940617197265600,93.734130076171900,"<a href=""http://www.ethnologue.com/language/czt"" target=""_blank"">Zotung Chin</a>",czt,Zotung Chin,,lang418,3,e3d000,Robust,fff9b5,1,1,1
circle,12.134354609375000,18.366645267578100,"<a href=""http://www.ethnologue.com/language/daa"" target=""_blank"">Dangaléat</a>",daa,Dangaléat,,lang419,3,e3d000,Robust,fff9b5,1,1,1
circle,-6.991625908203100,146.477823173828000,"<a href=""http://www.ethnologue.com/language/dac"" target=""_blank"">Dambi</a>",dac,Dambi,,lang420,3,e3d000,Robust,fff9b5,1,1,1
circle,-5.339933710937490,145.606491619141000,"<a href=""http://www.ethnologue.com/language/dad"" target=""_blank"">Marik</a>",dad,Marik,,lang421,3,e3d000,Robust,fff9b5,1,1,1
circle,8.545258841796850,13.446868978515600,"<a href=""http://www.ethnologue.com/language/dae"" target=""_blank"">Duupa</a>",dae,Duupa,,lang422,3,e3d000,Robust,fff9b5,1,1,1
circle,9.492737919921860,-0.465758648437486,"<a href=""http://www.ethnologue.com/language/dag"" target=""_blank"">Dagbani</a>",dag,Dagbani,,lang423,3,e3d000,Robust,fff9b5,1,1,1
circle,-5.669020089843740,146.471054785156000,"<a href=""http://www.ethnologue.com/language/dah"" target=""_blank"">Gwahatike</a>",dah,Gwahatike,,lang424,3,e3d000,Robust,fff9b5,1,1,1
circle,8.544944761718740,17.509097158203100,"<a href=""http://www.ethnologue.com/language/dai"" target=""_blank"">Day</a>",dai,Day,,lang425,3,e3d000,Robust,fff9b5,1,1,1
circle,12.254498005859400,25.321889529296900,"<a href=""http://www.ethnologue.com/language/daj"" target=""_blank"">Dar Fur Daju</a>",daj,Dar Fur Daju,,lang426,3,e3d000,Robust,fff9b5,1,1,1
circle,56.226565871093700,9.352545582031270,"<a href=""http://www.ethnologue.com/language/dan"" target=""_blank"">Danish</a>",dan,Danish,,lang430,3,e3d000,Robust,fff9b5,1,1,1
circle,21.154885406250000,93.587864664062500,"<a href=""http://www.ethnologue.com/language/dao"" target=""_blank"">Daai Chin</a>",dao,Daai Chin,,lang431,3,e3d000,Robust,fff9b5,1,1,1
circle,18.720648625000000,81.012763123046900,"<a href=""http://www.ethnologue.com/language/daq"" target=""_blank"">Dandami Maria</a>",daq,Dandami Maria,,lang432,3,e3d000,Robust,fff9b5,1,1,1
circle,42.446163255859300,47.380148125000000,"<a href=""http://www.ethnologue.com/language/dar"" target=""_blank"">Dargwa</a>",dar,Dargwa,,lang433,3,e3d000,Robust,fff9b5,1,1,1
circle,5.734887378906250,-7.357335195312490,"<a href=""http://www.ethnologue.com/language/das"" target=""_blank"">Daho-Doo</a>",das,Daho-Doo,,lang434,3,e3d000,Robust,fff9b5,1,1,1
circle,12.275827296875000,21.836374150390600,"<a href=""http://www.ethnologue.com/language/dau"" target=""_blank"">Dar Sila Daju</a>",dau,Dar Sila Daju,,lang435,3,e3d000,Robust,fff9b5,1,1,1
circle,-3.770984652343770,38.590081121093800,"<a href=""http://www.ethnologue.com/language/dav"" target=""_blank"">Dawida</a>",dav,Dawida,,lang436,3,e3d000,Robust,fff9b5,1,1,1
circle,7.226132742187470,126.457921000000000,"<a href=""http://www.ethnologue.com/language/daw"" target=""_blank"">Davawenyo</a>",daw,Davawenyo,,lang437,3,e3d000,Robust,fff9b5,1,1,1
circle,-3.252833089843760,136.422659259766000,"<a href=""http://www.ethnologue.com/language/daz"" target=""_blank"">Dao</a>",daz,Dao,,lang439,3,e3d000,Robust,fff9b5,1,1,1
circle,14.808431123046900,-3.766144308593770,"<a href=""http://www.ethnologue.com/language/dba"" target=""_blank"">Bangi Me</a>",dba,Bangi Me,,lang440,3,e3d000,Robust,fff9b5,1,1,1
circle,10.630824154296900,10.439525697265600,"<a href=""http://www.ethnologue.com/language/dbb"" target=""_blank"">Deno</a>",dbb,Deno,,lang441,3,e3d000,Robust,fff9b5,1,1,1
circle,9.629225611328140,11.480231314453100,"<a href=""http://www.ethnologue.com/language/dbd"" target=""_blank"">Dadiya</a>",dbd,Dadiya,,lang442,3,e3d000,Robust,fff9b5,1,1,1
circle,-3.113341587890600,137.374684958984000,"<a href=""http://www.ethnologue.com/language/dbf"" target=""_blank"">Edopi</a>",dbf,Edopi,,lang444,3,e3d000,Robust,fff9b5,1,1,1
circle,14.568974046875000,-3.576629158203100,"<a href=""http://www.ethnologue.com/language/dbg"" target=""_blank"">Dogul Dom Dogon</a>",dbg,Dogul Dom Dogon,,lang445,3,e3d000,Robust,fff9b5,1,1,1
circle,10.277794142578100,7.868808765624980,"<a href=""http://www.ethnologue.com/language/dbi"" target=""_blank"">Doka</a>",dbi,Doka,,lang446,3,e3d000,Robust,fff9b5,1,1,1
circle,5.212663533203110,118.593186322266000,"<a href=""http://www.ethnologue.com/language/dbj"" target=""_blank"">Ida\u0027an</a>",dbj,Ida’an,Yes,lang447,3,e3d000,Robust,fff9b5,1,1,1
circle,12.845510482421900,11.179206011718700,"<a href=""http://www.ethnologue.com/language/dbp"" target=""_blank"">Duwai</a>",dbp,Duwai,,lang452,3,e3d000,Robust,fff9b5,1,1,1
circle,10.194612716796900,13.900360357421800,"<a href=""http://www.ethnologue.com/language/dbq"" target=""_blank"">Daba</a>",dbq,Daba,,lang453,3,e3d000,Robust,fff9b5,1,1,1
circle,1.664746613281240,43.070567250000000,"<a href=""http://www.ethnologue.com/language/dbr"" target=""_blank"">Dabarre</a>",dbr,Dabarre,,lang454,3,e3d000,Robust,fff9b5,1,1,1
circle,14.901059589843700,-2.943726080078140,"<a href=""http://www.ethnologue.com/language/dbt"" target=""_blank"">Ben Tey Dogon</a>",dbt,Ben Tey Dogon,,lang455,3,e3d000,Robust,fff9b5,1,1,1
circle,14.926072376953100,-3.343399947265650,"<a href=""http://www.ethnologue.com/language/dbu"" target=""_blank"">Bondum Dom Dogon</a>",dbu,Bondum Dom Dogon,,lang456,3,e3d000,Robust,fff9b5,1,1,1
circle,7.321927205078110,17.940223708984400,"<a href=""http://www.ethnologue.com/language/dgk"" target=""_blank"">Dagba</a>",dgk,Dagba,,lang491,3,e3d000,Robust,fff9b5,1,1,1
circle,32.593733980468800,75.690834343750000,"<a href=""http://www.ethnologue.com/language/dgo"" target=""_blank"">Dogri</a>",dgo,Dogri,,lang493,3,e3d000,Robust,fff9b5,1,1,1
circle,62.365895224609300,-114.171042820312000,"<a href=""http://www.ethnologue.com/language/dgr"" target=""_blank"">Dogrib</a>",dgr,Dogrib,,lang494,3,e3d000,Robust,fff9b5,1,1,1
circle,24.003549359375000,87.205625167968700,"<a href=""http://www.ethnologue.com/language/dgu"" target=""_blank"">Degaru</a>",dgu,Degaru,,lang496,3,e3d000,Robust,fff9b5,1,1,1
circle,-9.142967283203120,148.771453000000000,"<a href=""http://www.ethnologue.com/language/dgx"" target=""_blank"">Doghoro</a>",dgx,Doghoro,,lang497,3,e3d000,Robust,fff9b5,1,1,1
circle,-10.004760763671900,149.273799462891000,"<a href=""http://www.ethnologue.com/language/dgz"" target=""_blank"">Daga</a>",dgz,Daga,,lang498,3,e3d000,Robust,fff9b5,1,1,1
circle,26.671408130859400,75.841147884765600,"<a href=""http://www.ethnologue.com/language/dhd"" target=""_blank"">Dhundari</a>",dhd,Dhundari,,lang499,3,e3d000,Robust,fff9b5,1,1,1
circle,-11.949273296875000,135.752136500000000,"<a href=""http://www.ethnologue.com/language/dhg"" target=""_blank"">Dhangu</a>",dhg,Dhangu,,lang500,3,e3d000,Robust,fff9b5,1,1,1
circle,23.659809601562500,86.673964244140600,"<a href=""http://www.ethnologue.com/language/dhi"" target=""_blank"">Dhimal</a>",dhi,Dhimal,,lang501,3,e3d000,Robust,fff9b5,1,1,1
circle,-17.694194257812500,13.273049316406200,"<a href=""http://www.ethnologue.com/language/dhm"" target=""_blank"">Zemba</a>",dhm,Zemba,,lang503,3,e3d000,Robust,fff9b5,1,1,1
circle,20.792932595703100,73.758073773437500,"<a href=""http://www.ethnologue.com/language/dhn"" target=""_blank"">Dhanki</a>",dhn,Dhanki,,lang504,3,e3d000,Robust,fff9b5,1,1,1
circle,20.748510455078100,73.220725218750000,"<a href=""http://www.ethnologue.com/language/dho"" target=""_blank"">Dhodia</a>",dho,Dhodia,,lang505,3,e3d000,Robust,fff9b5,1,1,1
circle,-20.942957785156200,167.225721398437000,"<a href=""http://www.ethnologue.com/language/dhv"" target=""_blank"">Dehu</a>",dhv,Dehu,,lang508,3,e3d000,Robust,fff9b5,1,1,1
circle,-3.426708460937510,142.296578007813000,"<a href=""http://www.ethnologue.com/language/dia"" target=""_blank"">Dia</a>",dia,Dia,,lang510,3,e3d000,Robust,fff9b5,1,1,1
circle,6.738500781250020,30.348562867187500,"<a href=""http://www.ethnologue.com/language/dib"" target=""_blank"">South Central Dinka</a>",dib,South Central Dinka,,lang511,3,e3d000,Robust,fff9b5,1,1,1
circle,5.882001167968720,-5.387982898437490,"<a href=""http://www.ethnologue.com/language/dic"" target=""_blank"">Lakota Dida</a>",dic,Lakota Dida,,lang512,3,e3d000,Robust,fff9b5,1,1,1
circle,4.248039230468750,33.630157412109400,"<a href=""http://www.ethnologue.com/language/did"" target=""_blank"">Didinga</a>",did,Didinga,,lang513,3,e3d000,Robust,fff9b5,1,1,1
circle,-4.720325974609350,39.051290335937500,"<a href=""http://www.ethnologue.com/language/dig"" target=""_blank"">Chidigo</a>",dig,Chidigo,,lang514,3,e3d000,Robust,fff9b5,1,1,1
circle,8.517559841796870,28.177082666015600,"<a href=""http://www.ethnologue.com/language/dik"" target=""_blank"">Southwestern Dinka</a>",dik,Southwestern Dinka,,lang518,3,e3d000,Robust,fff9b5,1,1,1
circle,8.990998753906240,6.386759630859390,"<a href=""http://www.ethnologue.com/language/dio"" target=""_blank"">Dibo</a>",dio,Dibo,,lang521,3,e3d000,Robust,fff9b5,1,1,1
circle,10.608567265625000,32.696626781250000,"<a href=""http://www.ethnologue.com/language/dip"" target=""_blank"">Northeastern Dinka</a>",dip,Northeastern Dinka,,lang522,3,e3d000,Robust,fff9b5,1,1,1
circle,38.614945451171900,39.648952669921900,"<a href=""http://www.ethnologue.com/language/diq"" target=""_blank"">Southern Zazaki</a>",diq,Southern Zazaki,,lang523,3,e3d000,Robust,fff9b5,1,1,1
circle,25.450074886718800,93.005491898437500,"<a href=""http://www.ethnologue.com/language/dis"" target=""_blank"">Dimasa</a>",dis,Dimasa,,lang524,3,e3d000,Robust,fff9b5,1,1,1
circle,-18.629199373046900,21.295531000000000,"<a href=""http://www.ethnologue.com/language/diu"" target=""_blank"">Diriku</a>",diu,Diriku,,lang525,3,e3d000,Robust,fff9b5,1,1,1
circle,-0.614378582031236,73.096720500000000,"<a href=""http://www.ethnologue.com/language/div"" target=""_blank"">Maldivian</a>",div,Maldivian,,lang526,3,e3d000,Robust,fff9b5,1,1,1
circle,9.844090550781230,29.422284906250000,"<a href=""http://www.ethnologue.com/language/diw"" target=""_blank"">Northwestern Dinka</a>",diw,Northwestern Dinka,,lang527,3,e3d000,Robust,fff9b5,1,1,1
circle,35.355782292968700,71.716662279296900,"<a href=""http://www.ethnologue.com/language/dml"" target=""_blank"">Dameli</a>",dml,Dameli,,lang530,3,e3d000,Robust,fff9b5,1,1,1
circle,6.696399193359350,10.499738335937500,"<a href=""http://www.ethnologue.com/language/dmo"" target=""_blank"">Kemedzung</a>",dmo,Kemedzung,,lang532,3,e3d000,Robust,fff9b5,1,1,1
circle,-7.169908695312530,128.635698000000000,"<a href=""http://www.ethnologue.com/language/dmr"" target=""_blank"">East Damar</a>",dmr,East Damar,,lang533,3,e3d000,Robust,fff9b5,1,1,1
circle,18.156168716796900,-77.310683736328100,"<a href=""http://www.ethnologue.com/language/jam"" target=""_blank"">Limón Creole English</a>",jam,Limón Creole English,,lang534,3,e3d000,Robust,fff9b5,1,1,1
circle,-7.518883910156260,111.207031234375000,"<a href=""http://www.ethnologue.com/language/jav"" target=""_blank"">Javanese</a>",jav,Javanese,,lang539,3,e3d000,Robust,fff9b5,1,1,1
circle,-1.619014222656230,102.934595500000000,"<a href=""http://www.ethnologue.com/language/jax"" target=""_blank"">Jambi Malay</a>",jax,Jambi Malay,,lang540,3,e3d000,Robust,fff9b5,1,1,1
circle,-7.237316269531280,143.960490865234000,"<a href=""http://www.ethnologue.com/language/jbk"" target=""_blank"">Barikewa</a>",jbk,Barikewa,,lang544,3,e3d000,Robust,fff9b5,1,1,1
circle,7.396362724609390,9.924470529296850,"<a href=""http://www.ethnologue.com/language/jbu"" target=""_blank"">Jukun Takum</a>",jbu,Jukun Takum,,lang548,3,e3d000,Robust,fff9b5,1,1,1
circle,31.119004621093700,78.635173529296900,"<a href=""http://www.ethnologue.com/language/jda"" target=""_blank"">Jad</a>",jda,Jad,,lang549,3,e3d000,Robust,fff9b5,1,1,1
circle,26.003920837890600,67.434417705078100,"<a href=""http://www.ethnologue.com/language/jdg"" target=""_blank"">Jadgali</a>",jdg,Jadgali,,lang550,3,e3d000,Robust,fff9b5,1,1,1
circle,41.379132406250000,48.489322523437500,"<a href=""http://www.ethnologue.com/language/jdt"" target=""_blank"">Judeo-Tat</a>",jdt,Judeo-Tat,,lang551,3,e3d000,Robust,fff9b5,1,1,1
circle,15.010085814453100,107.137436914063000,"<a href=""http://www.ethnologue.com/language/jeg"" target=""_blank"">Jeng</a>",jeg,Jeng,,lang554,3,e3d000,Robust,fff9b5,1,1,1
circle,10.209042000000000,77.103112882812500,"<a href=""http://www.ethnologue.com/language/muv"" target=""_blank"">Muthuvan</a>",muv,Muthuvan,,lang555,3,e3d000,Robust,fff9b5,1,1,1
circle,-5.880030494140610,144.090683003906000,"<a href=""http://www.ethnologue.com/language/mux"" target=""_blank"">Bo-Ung</a>",mux,Bo-Ung,,lang556,3,e3d000,Robust,fff9b5,1,1,1
circle,10.860792537109400,14.211124371093800,"<a href=""http://www.ethnologue.com/language/muy"" target=""_blank"">Muyang</a>",muy,Muyang,,lang557,3,e3d000,Robust,fff9b5,1,1,1
circle,5.709042375000020,36.093812144531200,"<a href=""http://www.ethnologue.com/language/muz"" target=""_blank"">Mursi</a>",muz,Mursi,,lang558,3,e3d000,Robust,fff9b5,1,1,1
circle,-4.079240285156230,145.034190970703000,"<a href=""http://www.ethnologue.com/language/mva"" target=""_blank"">Manam</a>",mva,Manam,,lang559,3,e3d000,Robust,fff9b5,1,1,1
circle,-9.415728687500010,119.558971472656000,"<a href=""http://www.ethnologue.com/language/mvd"" target=""_blank"">Mamboru</a>",mvd,Mamboru,,lang560,3,e3d000,Robust,fff9b5,1,1,1
circle,28.324182501953100,71.567142500000000,"<a href=""http://www.ethnologue.com/language/mve"" target=""_blank"">Marwari</a>",mve,Marwari,,lang561,3,e3d000,Robust,fff9b5,1,1,1
circle,9.658567550781240,16.989915949218800,"<a href=""http://www.ethnologue.com/language/mvh"" target=""_blank"">Mulgi</a>",mvh,Mulgi,,lang563,3,e3d000,Robust,fff9b5,1,1,1
circle,-4.448032707031250,143.748446951172000,"<a href=""http://www.ethnologue.com/language/mvk"" target=""_blank"">Mekmek</a>",mvk,Mekmek,,lang565,3,e3d000,Robust,fff9b5,1,1,1
circle,-9.608173492187520,150.483270240234000,"<a href=""http://www.ethnologue.com/language/mvn"" target=""_blank"">Minaveha</a>",mvn,Minaveha,,lang566,3,e3d000,Robust,fff9b5,1,1,1
circle,-8.403687779296890,157.743220896484000,"<a href=""http://www.ethnologue.com/language/mvo"" target=""_blank"">Marovo</a>",mvo,Marovo,,lang567,3,e3d000,Robust,fff9b5,1,1,1
circle,-3.367698466796870,119.875816041016000,"<a href=""http://www.ethnologue.com/language/mvp"" target=""_blank"">Duri</a>",mvp,Duri,,lang568,3,e3d000,Robust,fff9b5,1,1,1
circle,-1.670633373046880,135.783074648437000,"<a href=""http://www.ethnologue.com/language/mvr"" target=""_blank"">Marau</a>",mvr,Marau,,lang570,3,e3d000,Robust,fff9b5,1,1,1
circle,13.163746357421900,20.804245779296900,"<a href=""http://www.ethnologue.com/language/mvu"" target=""_blank"">Marfa</a>",mvu,Marfa,,lang573,3,e3d000,Robust,fff9b5,1,1,1
circle,-9.394673363281240,39.423650357421900,"<a href=""http://www.ethnologue.com/language/mvw"" target=""_blank"">Machinga</a>",mvw,Machinga,,lang575,3,e3d000,Robust,fff9b5,1,1,1
circle,-2.069456458984400,134.382516623047000,"<a href=""http://www.ethnologue.com/language/mvx"" target=""_blank"">Meoswar</a>",mvx,Meoswar,,lang576,3,e3d000,Robust,fff9b5,1,1,1
circle,35.191757716796900,73.025685761718800,"<a href=""http://www.ethnologue.com/language/mvy"" target=""_blank"">Indus Kohistani</a>",mvy,Indus Kohistani,,lang577,3,e3d000,Robust,fff9b5,1,1,1
circle,8.100587146484370,38.337770554687500,"<a href=""http://www.ethnologue.com/language/mvz"" target=""_blank"">Mesqan</a>",mvz,Mesqan,,lang578,3,e3d000,Robust,fff9b5,1,1,1
circle,-3.785961964843750,143.680679500000000,"<a href=""http://www.ethnologue.com/language/mwb"" target=""_blank"">Juwal</a>",mwb,Juwal,,lang580,3,e3d000,Robust,fff9b5,1,1,1
circle,-9.701661029296870,150.028077537109000,"<a href=""http://www.ethnologue.com/language/mwc"" target=""_blank"">Are</a>",mwc,Are,,lang581,3,e3d000,Robust,fff9b5,1,1,1
circle,-9.747797392578150,38.860680597656300,"<a href=""http://www.ethnologue.com/language/mwe"" target=""_blank"">Mwera</a>",mwe,Mwera,,lang582,3,e3d000,Robust,fff9b5,1,1,1
circle,-14.386887080078100,129.743076296875000,"<a href=""http://www.ethnologue.com/language/mwf"" target=""_blank"">Murrinh-Patha</a>",mwf,Murrinh-Patha,,lang583,3,e3d000,Robust,fff9b5,1,1,1
circle,-6.221280332031260,149.553465080078000,"<a href=""http://www.ethnologue.com/language/mwg"" target=""_blank"">Aiklep</a>",mwg,Aiklep,,lang584,3,e3d000,Robust,fff9b5,1,1,1
circle,-5.694180146484370,149.132511216797000,"<a href=""http://www.ethnologue.com/language/mwh"" target=""_blank"">Mouk-Aria</a>",mwh,Mouk-Aria,,lang585,3,e3d000,Robust,fff9b5,1,1,1
circle,13.092623972656300,-9.480661917968750,"<a href=""http://www.ethnologue.com/language/mwk"" target=""_blank"">Kita Maninkakan</a>",mwk,Kita Maninkakan,,lang587,3,e3d000,Robust,fff9b5,1,1,1
circle,41.525902958984400,-6.338799875000010,"<a href=""http://www.ethnologue.com/language/mwl"" target=""_blank"">Mirandese</a>",mwl,Mirandese,,lang588,3,e3d000,Robust,fff9b5,1,1,1
circle,8.913937152343750,18.152273250000000,"<a href=""http://www.ethnologue.com/language/mwm"" target=""_blank"">Sar</a>",mwm,Sar,,lang589,3,e3d000,Robust,fff9b5,1,1,1
circle,-9.549457082031270,32.580750167968700,"<a href=""http://www.ethnologue.com/language/mwn"" target=""_blank"">Nyamwanga</a>",mwn,Nyamwanga,,lang590,3,e3d000,Robust,fff9b5,1,1,1
circle,-10.688382550781200,142.187866740234000,"<a href=""http://www.ethnologue.com/language/mwp"" target=""_blank"">Kala Lagaw Ya</a>",mwp,Kala Lagaw Ya,,lang592,3,e3d000,Robust,fff9b5,1,1,1
circle,21.459173996093700,93.900364826171900,"<a href=""http://www.ethnologue.com/language/mwq"" target=""_blank"">Müün Chin</a>",mwq,Müün Chin,,lang593,3,e3d000,Robust,fff9b5,1,1,1
circle,-8.065126564453120,146.268713779297000,"<a href=""http://www.ethnologue.com/language/tqo"" target=""_blank"">Toaripi</a>",tqo,Toaripi,,lang595,3,e3d000,Robust,fff9b5,1,1,1
circle,-5.322253449218750,151.815057093750000,"<a href=""http://www.ethnologue.com/language/tqp"" target=""_blank"">Tomoip</a>",tqp,Tomoip,,lang596,3,e3d000,Robust,fff9b5,1,1,1
circle,0.985553152343755,43.585613554687500,"<a href=""http://www.ethnologue.com/language/tqq"" target=""_blank"">Tunni</a>",tqq,Tunni,,lang597,3,e3d000,Robust,fff9b5,1,1,1
circle,-8.580662316406230,157.293834755859000,"<a href=""http://www.ethnologue.com/language/tqu"" target=""_blank"">Touo</a>",tqu,Touo,,lang599,3,e3d000,Robust,fff9b5,1,1,1
circle,17.154081445312500,-97.985676908203100,"<a href=""http://www.ethnologue.com/language/trc"" target=""_blank"">Copala Triqui</a>",trc,Copala Triqui,,lang601,3,e3d000,Robust,fff9b5,1,1,1
circle,-6.676213537109390,134.326736400391000,"<a href=""http://www.ethnologue.com/language/tre"" target=""_blank"">East Tarangan</a>",tre,East Tarangan,,lang603,3,e3d000,Robust,fff9b5,1,1,1
circle,10.418774449218700,-61.293894042968800,"<a href=""http://www.ethnologue.com/language/trf"" target=""_blank"">Trinidadian Creole English</a>",trf,Trinidadian Creole English,,lang604,3,e3d000,Robust,fff9b5,1,1,1
circle,1.881755109374980,-55.847917566406200,"<a href=""http://www.ethnologue.com/language/tri"" target=""_blank"">Trió</a>",tri,Trió,,lang606,3,e3d000,Robust,fff9b5,1,1,1
circle,35.007302164062500,71.119794050781300,"<a href=""http://www.ethnologue.com/language/trm"" target=""_blank"">Tregami</a>",trm,Tregami,,lang608,3,e3d000,Robust,fff9b5,1,1,1
circle,24.396869175781300,94.177137816406200,"<a href=""http://www.ethnologue.com/language/tro"" target=""_blank"">Tarao Naga</a>",tro,Tarao Naga,,lang610,3,e3d000,Robust,fff9b5,1,1,1
circle,23.631648347656300,91.583536275390600,"<a href=""http://www.ethnologue.com/language/trp"" target=""_blank"">Kok Borok</a>",trp,Kok Borok,,lang611,3,e3d000,Robust,fff9b5,1,1,1
circle,17.242145621093800,-97.916790117187500,"<a href=""http://www.ethnologue.com/language/trq"" target=""_blank"">San Martín Itunyoso Triqui</a>",trq,San Martín Itunyoso Triqui,,lang612,3,e3d000,Robust,fff9b5,1,1,1
circle,17.161271697265600,-97.853738351562500,"<a href=""http://www.ethnologue.com/language/trs"" target=""_blank"">Chicahuaxtla Triqui</a>",trs,Chicahuaxtla Triqui,,lang614,3,e3d000,Robust,fff9b5,1,1,1
circle,24.026025527343700,121.357911371094000,"<a href=""http://www.ethnologue.com/language/trv"" target=""_blank"">Taroko</a>",trv,Taroko,,lang617,3,e3d000,Robust,fff9b5,1,1,1
circle,35.246788109375000,72.555157125000000,"<a href=""http://www.ethnologue.com/language/trw"" target=""_blank"">Torwali</a>",trw,Torwali,,lang618,3,e3d000,Robust,fff9b5,1,1,1
circle,15.922059267578100,3.496071150390610,"<a href=""http://www.ethnologue.com/language/ttq"" target=""_blank"">Tamajaq</a>",ttq,Tamajaq,,lang654,3,e3d000,Robust,fff9b5,1,1,1
circle,10.368587566406200,11.517090156250000,"<a href=""http://www.ethnologue.com/language/ttr"" target=""_blank"">Tera</a>",ttr,Tera,,lang655,3,e3d000,Robust,fff9b5,1,1,1
circle,16.115475306640600,102.998981982422000,"<a href=""http://www.ethnologue.com/language/tts"" target=""_blank"">Northeastern Thai</a>",tts,Northeastern Thai,,lang656,3,e3d000,Robust,fff9b5,1,1,1
circle,-6.134427054687480,155.429142734375000,"<a href=""http://www.ethnologue.com/language/ttu"" target=""_blank"">Torau</a>",ttu,Torau,,lang658,3,e3d000,Robust,fff9b5,1,1,1
circle,-2.192044634765640,147.166344537109000,"<a href=""http://www.ethnologue.com/language/ttv"" target=""_blank"">Titan</a>",ttv,Titan,,lang659,3,e3d000,Robust,fff9b5,1,1,1
circle,-2.815327994140600,138.309443242188000,"<a href=""http://www.ethnologue.com/language/tty"" target=""_blank"">Sikaritai</a>",tty,Sikaritai,,lang661,3,e3d000,Robust,fff9b5,1,1,1
circle,28.494647906250000,85.042696685546900,"<a href=""http://www.ethnologue.com/language/ttz"" target=""_blank"">Tsum</a>",ttz,Tsum,,lang662,3,e3d000,Robust,fff9b5,1,1,1
circle,-5.957329597656270,148.025139500000000,"<a href=""http://www.ethnologue.com/language/tuc"" target=""_blank"">Mutu</a>",tuc,Mutu,,lang664,3,e3d000,Robust,fff9b5,1,1,1
circle,6.664141185546900,-72.258851296875000,"<a href=""http://www.ethnologue.com/language/tuf"" target=""_blank"">Central Tunebo</a>",tuf,Central Tunebo,,lang666,3,e3d000,Robust,fff9b5,1,1,1
circle,9.399144888671860,18.190240937500000,"<a href=""http://www.ethnologue.com/language/tug"" target=""_blank"">Tunia</a>",tug,Tunia,,lang667,3,e3d000,Robust,fff9b5,1,1,1
circle,10.064964503906300,14.840837832031200,"<a href=""http://www.ethnologue.com/language/tui"" target=""_blank"">Tupuri</a>",tui,Tupuri,,lang669,3,e3d000,Robust,fff9b5,1,1,1
circle,1.255735205078110,128.487643750000000,"<a href=""http://www.ethnologue.com/language/tuj"" target=""_blank"">Tugutil</a>",tuj,Tugutil,,lang670,3,e3d000,Robust,fff9b5,1,1,1
circle,37.082946052734400,59.962285404296900,"<a href=""http://www.ethnologue.com/language/tuk"" target=""_blank"">Turkmen</a>",tuk,Turkmen,,lang671,3,e3d000,Robust,fff9b5,1,1,1
circle,9.833568199218750,11.506578882812500,"<a href=""http://www.ethnologue.com/language/tul"" target=""_blank"">Tula</a>",tul,Tula,,lang672,3,e3d000,Robust,fff9b5,1,1,1
circle,-11.300359988281200,32.815477250000000,"<a href=""http://www.ethnologue.com/language/tum"" target=""_blank"">Tumbuka</a>",tum,Tumbuka,,lang673,3,e3d000,Robust,fff9b5,1,1,1
circle,-10.306030742187500,150.382650355469000,"<a href=""http://www.ethnologue.com/language/wag"" target=""_blank"">Wa\u0027ema</a>",wag,Wa’ema,Yes,lang675,3,e3d000,Robust,fff9b5,1,1,1
circle,-4.507093007812500,131.659816250000000,"<a href=""http://www.ethnologue.com/language/wah"" target=""_blank"">Watubela</a>",wah,Watubela,,lang676,3,e3d000,Robust,fff9b5,1,1,1
circle,-6.655620103515620,146.153445566406000,"<a href=""http://www.ethnologue.com/language/waj"" target=""_blank"">Waffa</a>",waj,Waffa,,lang678,3,e3d000,Robust,fff9b5,1,1,1
circle,6.725082708984360,37.672623199218700,"<a href=""http://www.ethnologue.com/language/wal"" target=""_blank"">Wolaytta</a>",wal,Wolaytta,,lang679,3,e3d000,Robust,fff9b5,1,1,1
circle,7.799175427734380,-5.820938000000010,"<a href=""http://www.ethnologue.com/language/wan"" target=""_blank"">Wan</a>",wan,Wan,,lang680,3,e3d000,Robust,fff9b5,1,1,1
circle,11.938838503906300,125.053948251953000,"<a href=""http://www.ethnologue.com/language/war"" target=""_blank"">Waray-Waray</a>",war,Waray-Waray,,lang683,3,e3d000,Robust,fff9b5,1,1,1
circle,-9.218210386718740,150.235895074219000,"<a href=""http://www.ethnologue.com/language/wat"" target=""_blank"">Kaninuwa</a>",wat,Kaninuwa,,lang685,3,e3d000,Robust,fff9b5,1,1,1
circle,-13.300598695312500,-53.703005404296900,"<a href=""http://www.ethnologue.com/language/wau"" target=""_blank"">Waurá</a>",wau,Waurá,,lang686,3,e3d000,Robust,fff9b5,1,1,1
circle,9.170547144531270,11.827046121093800,"<a href=""http://www.ethnologue.com/language/wav"" target=""_blank"">Waka</a>",wav,Waka,,lang687,3,e3d000,Robust,fff9b5,1,1,1
circle,1.323665138671860,-59.635792427734400,"<a href=""http://www.ethnologue.com/language/waw"" target=""_blank"">Waiwai</a>",waw,Waiwai,,lang688,3,e3d000,Robust,fff9b5,1,1,1
circle,-4.025911291015630,144.582531500000000,"<a href=""http://www.ethnologue.com/language/wax"" target=""_blank"">Marangis</a>",wax,Marangis,,lang689,3,e3d000,Robust,fff9b5,1,1,1
circle,-6.389046554687520,146.143165402344000,"<a href=""http://www.ethnologue.com/language/waz"" target=""_blank"">Wampur</a>",waz,Wampur,,lang691,3,e3d000,Robust,fff9b5,1,1,1
circle,-8.968580511718760,34.021227687500000,"<a href=""http://www.ethnologue.com/language/wbi"" target=""_blank"">Vwanji</a>",wbi,Vwanji,,lang697,3,e3d000,Robust,fff9b5,1,1,1
circle,35.177842064453100,71.059526167968700,"<a href=""http://www.ethnologue.com/language/wbk"" target=""_blank"">Waigali</a>",wbk,Waigali,,lang699,3,e3d000,Robust,fff9b5,1,1,1
circle,36.959316033203100,72.268069671875000,"<a href=""http://www.ethnologue.com/language/wbl"" target=""_blank"">Wakhi</a>",wbl,Wakhi,,lang700,3,e3d000,Robust,fff9b5,1,1,1
circle,-20.168330261718800,131.253109855469000,"<a href=""http://www.ethnologue.com/language/wbp"" target=""_blank"">Warlpiri</a>",wbp,Warlpiri,,lang701,3,e3d000,Robust,fff9b5,1,1,1
circle,18.055642992187500,73.875282703125000,"<a href=""http://www.ethnologue.com/language/wbq"" target=""_blank"">Waddar</a>",wbq,Waddar,,lang702,3,e3d000,Robust,fff9b5,1,1,1
circle,23.694715833984400,74.011473146484400,"<a href=""http://www.ethnologue.com/language/wbr"" target=""_blank"">Wagdi</a>",wbr,Wagdi,,lang703,3,e3d000,Robust,fff9b5,1,1,1
circle,6.506899359374980,1.445892249999990,"<a href=""http://www.ethnologue.com/language/wci"" target=""_blank"">Waci Gbe</a>",wci,Waci Gbe,,lang708,3,e3d000,Robust,fff9b5,1,1,1
circle,-3.082906214843770,142.123946253906000,"<a href=""http://www.ethnologue.com/language/aps"" target=""_blank"">Arop-Sissano</a>",aps,Arop-Sissano,,lang709,3,e3d000,Robust,fff9b5,1,1,1
circle,1.449104292968740,-54.741729441406300,"<a href=""http://www.ethnologue.com/language/apy"" target=""_blank"">Apalaí</a>",apy,Apalaí,,lang714,3,e3d000,Robust,fff9b5,1,1,1
circle,-6.965034886718740,145.988964531250000,"<a href=""http://www.ethnologue.com/language/apz"" target=""_blank"">Safeyoka</a>",apz,Safeyoka,,lang715,3,e3d000,Robust,fff9b5,1,1,1
circle,14.250505326171900,-3.920276650390630,"<a href=""http://www.ethnologue.com/language/aqd"" target=""_blank"">Ampari Dogon</a>",aqd,Ampari Dogon,,lang717,3,e3d000,Robust,fff9b5,1,1,1
circle,7.628439580078120,5.795496992187510,"<a href=""http://www.ethnologue.com/language/aqg"" target=""_blank"">Arigidi</a>",aqg,Arigidi,,lang718,3,e3d000,Robust,fff9b5,1,1,1
circle,-6.284821322265600,138.634040390625000,"<a href=""http://www.ethnologue.com/language/aqm"" target=""_blank"">Atohwaim</a>",aqm,Atohwaim,,lang719,3,e3d000,Robust,fff9b5,1,1,1
circle,-24.051275501953100,133.247046500000000,"<a href=""http://www.ethnologue.com/language/are"" target=""_blank"">Western Arrarnta</a>",are,Western Arrarnta,,lang724,3,e3d000,Robust,fff9b5,1,1,1
circle,10.581751279296900,-73.737270148437500,"<a href=""http://www.ethnologue.com/language/arh"" target=""_blank"">Arhuaco</a>",arh,Arhuaco,,lang726,3,e3d000,Robust,fff9b5,1,1,1
circle,34.794867767578100,0.732229812500009,"<a href=""http://www.ethnologue.com/language/arq"" target=""_blank"">Algerian Spoken Arabic</a>",arq,Algerian Spoken Arabic,,lang733,3,e3d000,Robust,fff9b5,1,1,1
circle,24.981514761718800,43.863486000000000,"<a href=""http://www.ethnologue.com/language/ars"" target=""_blank"">Najdi Spoken Arabic</a>",ars,Najdi Spoken Arabic,,lang735,3,e3d000,Robust,fff9b5,1,1,1
circle,4.895211919921850,36.783080791015600,"<a href=""http://www.ethnologue.com/language/arv"" target=""_blank"">Arbore</a>",arv,Arbore,,lang736,3,e3d000,Robust,fff9b5,1,1,1
circle,34.898298076171900,-5.443123804687500,"<a href=""http://www.ethnologue.com/language/ary"" target=""_blank"">Moroccan Spoken Arabic</a>",ary,Moroccan Spoken Arabic,,lang739,3,e3d000,Robust,fff9b5,1,1,1
circle,30.757563257812500,31.111426699218700,"<a href=""http://www.ethnologue.com/language/arz"" target=""_blank"">Egyptian Spoken Arabic</a>",arz,Egyptian Spoken Arabic,,lang740,3,e3d000,Robust,fff9b5,1,1,1
circle,-4.251276164062520,37.832260000000000,"<a href=""http://www.ethnologue.com/language/asa"" target=""_blank"">Asu</a>",asa,Asu,,lang741,3,e3d000,Robust,fff9b5,1,1,1
circle,-6.285897203124990,138.507037095703000,"<a href=""http://www.ethnologue.com/language/asc"" target=""_blank"">Casuarina Coast Asmat</a>",asc,Casuarina Coast Asmat,,lang743,3,e3d000,Robust,fff9b5,1,1,1
circle,-5.700751687500030,145.547304449219000,"<a href=""http://www.ethnologue.com/language/asd"" target=""_blank"">Asas</a>",asd,Asas,,lang744,3,e3d000,Robust,fff9b5,1,1,1
circle,-9.274379871093740,150.744358750000000,"<a href=""http://www.ethnologue.com/language/gvs"" target=""_blank"">Gumawana</a>",gvs,Gumawana,,lang745,3,e3d000,Robust,fff9b5,1,1,1
circle,5.360762199218750,-3.692297189453140,"<a href=""http://www.ethnologue.com/language/gwa"" target=""_blank"">Mbato</a>",gwa,Mbato,,lang746,3,e3d000,Robust,fff9b5,1,1,1
circle,10.305061531250000,9.116012316406230,"<a href=""http://www.ethnologue.com/language/gwb"" target=""_blank"">Gwa</a>",gwb,Gwa,,lang747,3,e3d000,Robust,fff9b5,1,1,1
circle,5.409348804687510,37.239069847656300,"<a href=""http://www.ethnologue.com/language/gwd"" target=""_blank"">Gawwada</a>",gwd,Gawwada,,lang749,3,e3d000,Robust,fff9b5,1,1,1
circle,9.547924626953150,11.341639867187500,"<a href=""http://www.ethnologue.com/language/gwg"" target=""_blank"">Moo</a>",gwg,Moo,,lang752,3,e3d000,Robust,fff9b5,1,1,1
circle,-22.297810796875000,22.058500382812500,"<a href=""http://www.ethnologue.com/language/gwj"" target=""_blank"">|Gwi</a>",gwj,|Gwi,,lang754,3,e3d000,Robust,fff9b5,1,1,1
circle,9.165514556640630,7.624574999999990,"<a href=""http://www.ethnologue.com/language/gwn"" target=""_blank"">Gwandara</a>",gwn,Gwandara,,lang755,3,e3d000,Robust,fff9b5,1,1,1
circle,1.121428771484370,33.855432767578100,"<a href=""http://www.ethnologue.com/language/gwr"" target=""_blank"">Gwere</a>",gwr,Gwere,,lang756,3,e3d000,Robust,fff9b5,1,1,1
circle,6.498632552734360,0.173143617187520,"<a href=""http://www.ethnologue.com/language/gwx"" target=""_blank"">Gua</a>",gwx,Gua,,lang759,3,e3d000,Robust,fff9b5,1,1,1
circle,6.596395435546870,-7.576125257812520,"<a href=""http://www.ethnologue.com/language/gxx"" target=""_blank"">Wè Southern</a>",gxx,Wè Southern,,lang760,3,e3d000,Robust,fff9b5,1,1,1
circle,6.182937230468720,15.145366976562500,"<a href=""http://www.ethnologue.com/language/gya"" target=""_blank"">Northwest Gbaya</a>",gya,Northwest Gbaya,,lang761,3,e3d000,Robust,fff9b5,1,1,1
circle,-4.937103625000020,145.688421757813000,"<a href=""http://www.ethnologue.com/language/gyb"" target=""_blank"">Garus</a>",gyb,Garus,,lang762,3,e3d000,Robust,fff9b5,1,1,1
circle,5.673265218749980,22.034829000000000,"<a href=""http://www.ethnologue.com/language/gyg"" target=""_blank"">Gbayi</a>",gyg,Gbayi,,lang765,3,e3d000,Robust,fff9b5,1,1,1
circle,6.196543738281260,36.644209726562500,"<a href=""http://www.ethnologue.com/language/gyl"" target=""_blank"">Gayil</a>",gyl,Gayil,,lang767,3,e3d000,Robust,fff9b5,1,1,1
circle,8.650779486328130,-81.841383482421900,"<a href=""http://www.ethnologue.com/language/gym"" target=""_blank"">Ngäbere</a>",gym,Ngäbere,,lang768,3,e3d000,Robust,fff9b5,1,1,1
circle,6.530776359375010,-58.237286105468700,"<a href=""http://www.ethnologue.com/language/gyn"" target=""_blank"">Guyanese Creole English</a>",gyn,Guyanese Creole English,,lang769,3,e3d000,Robust,fff9b5,1,1,1
circle,-15.887282750000000,-61.620190910156200,"<a href=""http://www.ethnologue.com/language/gyr"" target=""_blank"">Guarayu</a>",gyr,Guarayu,,lang770,3,e3d000,Robust,fff9b5,1,1,1
circle,9.644636927734380,34.094413898437500,"<a href=""http://www.ethnologue.com/language/gza"" target=""_blank"">Ganza</a>",gza,Ganza,,lang771,3,e3d000,Robust,fff9b5,1,1,1
circle,-0.432248281249997,127.962602564453000,"<a href=""http://www.ethnologue.com/language/gzn"" target=""_blank"">Gane</a>",gzn,Gane,,lang773,3,e3d000,Robust,fff9b5,1,1,1
circle,21.023418271484400,105.835138945313000,"<a href=""http://www.ethnologue.com/language/hab"" target=""_blank"">Hanoi Sign Language</a>",hab,Hanoi Sign Language,,lang775,3,e3d000,Robust,fff9b5,1,1,1
circle,-1.147118333984400,134.016214474609000,"<a href=""http://www.ethnologue.com/language/had"" target=""_blank"">Hatam</a>",had,Hatam,,lang776,3,e3d000,Robust,fff9b5,1,1,1
circle,8.738639267578150,41.450607066406200,"<a href=""http://www.ethnologue.com/language/hae"" target=""_blank"">Eastern Oromo</a>",hae,Eastern Oromo,,lang777,3,e3d000,Robust,fff9b5,1,1,1
circle,20.856476640625000,106.687443763672000,"<a href=""http://www.ethnologue.com/language/haf"" target=""_blank"">Haiphong Sign Language</a>",haf,Haiphong Sign Language,,lang778,3,e3d000,Robust,fff9b5,1,1,1
circle,9.321585568359350,-1.621503236328120,"<a href=""http://www.ethnologue.com/language/hag"" target=""_blank"">Hanga</a>",hag,Hanga,,lang779,3,e3d000,Robust,fff9b5,1,1,1
circle,-5.636778041015650,154.761126326172000,"<a href=""http://www.ethnologue.com/language/hah"" target=""_blank"">Hahon</a>",hah,Hahon,,lang780,3,e3d000,Robust,fff9b5,1,1,1
circle,25.504159548828100,90.089642111328100,"<a href=""http://www.ethnologue.com/language/haj"" target=""_blank"">Hajong</a>",haj,Hajong,,lang781,3,e3d000,Robust,fff9b5,1,1,1
circle,-5.144332527343750,142.740398082031000,"<a href=""http://www.ethnologue.com/language/ham"" target=""_blank"">Hewa</a>",ham,Hewa,,lang783,3,e3d000,Robust,fff9b5,1,1,1
circle,-2.523473791015650,30.707391500000000,"<a href=""http://www.ethnologue.com/language/han"" target=""_blank"">Hangaza</a>",han,Hangaza,,lang784,3,e3d000,Robust,fff9b5,1,1,1
circle,-5.073327453124990,154.597836421875000,"<a href=""http://www.ethnologue.com/language/hao"" target=""_blank"">Hakö</a>",hao,Hakö,,lang785,3,e3d000,Robust,fff9b5,1,1,1
circle,-4.364184226562490,139.162944154297000,"<a href=""http://www.ethnologue.com/language/hap"" target=""_blank"">Hupla</a>",hap,Hupla,,lang786,3,e3d000,Robust,fff9b5,1,1,1
circle,-3.913094201171870,30.448325095703100,"<a href=""http://www.ethnologue.com/language/haq"" target=""_blank"">Ha</a>",haq,Ha,,lang787,3,e3d000,Robust,fff9b5,1,1,1
circle,9.304716580078150,42.132953562500000,"<a href=""http://www.ethnologue.com/language/har"" target=""_blank"">Harari</a>",har,Harari,,lang788,3,e3d000,Robust,fff9b5,1,1,1
circle,18.325141236328100,-73.045970000000000,"<a href=""http://www.ethnologue.com/language/hat"" target=""_blank"">Haitian</a>",hat,Haitian,,lang790,3,e3d000,Robust,fff9b5,1,1,1
circle,13.602272248046900,4.997768000000010,"<a href=""http://www.ethnologue.com/language/hau"" target=""_blank"">Hausa</a>",hau,Hausa,,lang791,3,e3d000,Robust,fff9b5,1,1,1
circle,-1.999749259765620,28.862345500000000,"<a href=""http://www.ethnologue.com/language/hav"" target=""_blank"">Havu</a>",hav,Havu,,lang792,3,e3d000,Robust,fff9b5,1,1,1
circle,19.600233787109300,-155.519722572266000,"<a href=""http://www.ethnologue.com/language/haw"" target=""_blank"">Hawaiian</a>",haw,Hawaiian,,lang793,3,e3d000,Robust,fff9b5,1,1,1
circle,-1.600652960937510,31.519449894531200,"<a href=""http://www.ethnologue.com/language/hay"" target=""_blank"">Haya</a>",hay,Haya,,lang795,3,e3d000,Robust,fff9b5,1,1,1
circle,34.170629019531200,66.620981724609400,"<a href=""http://www.ethnologue.com/language/haz"" target=""_blank"">Hazaragi</a>",haz,Hazaragi,,lang796,3,e3d000,Robust,fff9b5,1,1,1
circle,-2.544007703124980,24.267789164062500,"<a href=""http://www.ethnologue.com/language/hba"" target=""_blank"">Hamba</a>",hba,Hamba,,lang797,3,e3d000,Robust,fff9b5,1,1,1
circle,10.359416798828100,13.140200185546900,"<a href=""http://www.ethnologue.com/language/hbb"" target=""_blank"">Huba</a>",hbb,Huba,,lang798,3,e3d000,Robust,fff9b5,1,1,1
circle,12.545994833984400,92.821020531250000,"<a href=""http://www.ethnologue.com/language/hca"" target=""_blank"">Andaman Creole Hindi</a>",hca,Andaman Creole Hindi,,lang801,3,e3d000,Robust,fff9b5,1,1,1
circle,21.770646136718800,-104.560698189453000,"<a href=""http://www.ethnologue.com/language/hch"" target=""_blank"">Huichol</a>",hch,Huichol,,lang802,3,e3d000,Robust,fff9b5,1,1,1
circle,31.105650990234400,35.017879000000000,"<a href=""http://www.ethnologue.com/language/heb"" target=""_blank"">Hebrew</a>",heb,Hebrew,,lang805,3,e3d000,Robust,fff9b5,1,1,1
circle,9.166161277343750,14.942671888671900,"<a href=""http://www.ethnologue.com/language/hed"" target=""_blank"">Herdé</a>",hed,Herdé,,lang806,3,e3d000,Robust,fff9b5,1,1,1
circle,-10.273478150390600,123.334765000000000,"<a href=""http://www.ethnologue.com/language/heg"" target=""_blank"">Helong</a>",heg,Helong,,lang807,3,e3d000,Robust,fff9b5,1,1,1
circle,-7.914430416015650,35.624592265625000,"<a href=""http://www.ethnologue.com/language/heh"" target=""_blank"">Hehe</a>",heh,Hehe,,lang808,3,e3d000,Robust,fff9b5,1,1,1
circle,-7.774589757812520,27.591280500000000,"<a href=""http://www.ethnologue.com/language/hem"" target=""_blank"">Hemba</a>",hem,Hemba,,lang810,3,e3d000,Robust,fff9b5,1,1,1
circle,-21.192615867187500,21.022261289062500,"<a href=""http://www.ethnologue.com/language/her"" target=""_blank"">Herero</a>",her,Herero,,lang811,3,e3d000,Robust,fff9b5,1,1,1
circle,-19.784361275390600,16.983995324218800,"<a href=""http://www.ethnologue.com/language/hgm"" target=""_blank"">Hai||om</a>",hgm,Hai||om,,lang812,3,e3d000,Robust,fff9b5,1,1,1
circle,-10.274516134765600,150.242052095703000,"<a href=""http://www.ethnologue.com/language/hgw"" target=""_blank"">Haigwai</a>",hgw,Haigwai,,lang813,3,e3d000,Robust,fff9b5,1,1,1
circle,12.365177425781300,-16.685661000000000,"<a href=""http://www.ethnologue.com/language/hhr"" target=""_blank"">Kerak</a>",hhr,Kerak,,lang815,3,e3d000,Robust,fff9b5,1,1,1
circle,11.201069814453100,13.732568796875000,"<a href=""http://www.ethnologue.com/language/hia"" target=""_blank"">Lamang</a>",hia,Lamang,,lang817,3,e3d000,Robust,fff9b5,1,1,1
circle,10.579398490234400,13.411622021484400,"<a href=""http://www.ethnologue.com/language/hig"" target=""_blank"">Kamwe</a>",hig,Kamwe,,lang819,3,e3d000,Robust,fff9b5,1,1,1
circle,31.170727478515600,76.925699931640600,"<a href=""http://www.ethnologue.com/language/hii"" target=""_blank"">Hinduri</a>",hii,Hinduri,,lang821,3,e3d000,Robust,fff9b5,1,1,1
circle,10.730415119140600,123.248223250000000,"<a href=""http://www.ethnologue.com/language/hil"" target=""_blank"">Hiligaynon</a>",hil,Hiligaynon,,lang824,3,e3d000,Robust,fff9b5,1,1,1
circle,26.265772414062500,78.271253750000000,"<a href=""http://www.ethnologue.com/language/hin"" target=""_blank"">Hindi</a>",hin,Hindi,,lang825,3,e3d000,Robust,fff9b5,1,1,1
circle,-0.169600759765615,-58.798865664062500,"<a href=""http://www.ethnologue.com/language/hix"" target=""_blank"">Hixkaryána</a>",hix,Hixkaryána,,lang829,3,e3d000,Robust,fff9b5,1,1,1
circle,-9.995996107421890,147.703480000000000,"<a href=""http://www.ethnologue.com/language/hul"" target=""_blank"">Hula</a>",hul,Hula,,lang887,3,e3d000,Robust,fff9b5,1,1,1
circle,47.193310064453100,19.538635482421900,"<a href=""http://www.ethnologue.com/language/hun"" target=""_blank"">Hungarian</a>",hun,Hungarian,,lang889,3,e3d000,Robust,fff9b5,1,1,1
circle,21.631897398437500,-98.503957417968800,"<a href=""http://www.ethnologue.com/language/hus"" target=""_blank"">Huastec</a>",hus,Huastec,,lang892,3,e3d000,Robust,fff9b5,1,1,1
circle,30.055335021484400,81.568058916015600,"<a href=""http://www.ethnologue.com/language/hut"" target=""_blank"">Humla</a>",hut,Humla,,lang893,3,e3d000,Robust,fff9b5,1,1,1
circle,16.212953005859400,-95.007663000000000,"<a href=""http://www.ethnologue.com/language/huv"" target=""_blank"">San Mateo del Mar Huave</a>",huv,San Mateo del Mar Huave,,lang895,3,e3d000,Robust,fff9b5,1,1,1
circle,-10.531267408203100,121.870660171875000,"<a href=""http://www.ethnologue.com/language/hvn"" target=""_blank"">Sabu</a>",hvn,Sabu,,lang900,3,e3d000,Robust,fff9b5,1,1,1
circle,4.846596837890620,-6.465603560546870,"<a href=""http://www.ethnologue.com/language/hwa"" target=""_blank"">Wané</a>",hwa,Wané,,lang902,3,e3d000,Robust,fff9b5,1,1,1
circle,19.600233787109300,-155.519722572266000,"<a href=""http://www.ethnologue.com/language/hwc"" target=""_blank"">Hawai\u0027i Creole English</a>",hwc,Hawai’i Creole English,Yes,lang903,3,e3d000,Robust,fff9b5,1,1,1
circle,10.370077224609400,12.778165595703100,"<a href=""http://www.ethnologue.com/language/hwo"" target=""_blank"">Hwana</a>",hwo,Hwana,,lang904,3,e3d000,Robust,fff9b5,1,1,1
circle,39.917639501953100,44.876972000000000,"<a href=""http://www.ethnologue.com/language/hye"" target=""_blank"">Armenian</a>",hye,Armenian,,lang906,3,e3d000,Robust,fff9b5,1,1,1
circle,-20.667057750000000,166.551017000000000,"<a href=""http://www.ethnologue.com/language/iai"" target=""_blank"">Iaai</a>",iai,Iaai,,lang907,3,e3d000,Robust,fff9b5,1,1,1
circle,-4.266169037109360,143.286433054687000,"<a href=""http://www.ethnologue.com/language/ian"" target=""_blank"">Iatmul</a>",ian,Iatmul,,lang908,3,e3d000,Robust,fff9b5,1,1,1
circle,-7.605767898437480,145.016742599609000,"<a href=""http://www.ethnologue.com/language/iar"" target=""_blank"">Purari</a>",iar,Purari,,lang909,3,e3d000,Robust,fff9b5,1,1,1
circle,1.009318435546840,112.153876328125000,"<a href=""http://www.ethnologue.com/language/iba"" target=""_blank"">Iban</a>",iba,Iban,,lang910,3,e3d000,Robust,fff9b5,1,1,1
circle,5.126921474609390,7.845050552734390,"<a href=""http://www.ethnologue.com/language/ibb"" target=""_blank"">Ibibio</a>",ibb,Ibibio,,lang911,3,e3d000,Robust,fff9b5,1,1,1
circle,7.604383664062480,5.894285039062480,"<a href=""http://www.ethnologue.com/language/ibe"" target=""_blank"">Akpes</a>",ibe,Akpes,,lang913,3,e3d000,Robust,fff9b5,1,1,1
circle,17.422934718750000,121.866937509766000,"<a href=""http://www.ethnologue.com/language/ibg"" target=""_blank"">Ibanag</a>",ibg,Ibanag,,lang914,3,e3d000,Robust,fff9b5,1,1,1
circle,-8.658087275390640,121.846073783203000,"<a href=""http://www.ethnologue.com/language/ljl"" target=""_blank"">Li\u0027o</a>",ljl,Li’o,Yes,lang915,3,e3d000,Robust,fff9b5,1,1,1
circle,0.446216943359389,34.833877466796900,"<a href=""http://www.ethnologue.com/language/lkb"" target=""_blank"">Lukabaras</a>",lkb,Lukabaras,,lang918,3,e3d000,Robust,fff9b5,1,1,1
circle,1.286248132812490,33.062610115234300,"<a href=""http://www.ethnologue.com/language/lke"" target=""_blank"">Kenye</a>",lke,Kenye,,lang921,3,e3d000,Robust,fff9b5,1,1,1
circle,10.517987146484400,29.954580000000000,"<a href=""http://www.ethnologue.com/language/kgo"" target=""_blank"">Krongo</a>",kgo,Krongo,,lang922,3,e3d000,Robust,fff9b5,1,1,1
circle,-4.304206871093750,135.882918500000000,"<a href=""http://www.ethnologue.com/language/kgq"" target=""_blank"">Kamoro</a>",kgq,Kamoro,,lang924,3,e3d000,Robust,fff9b5,1,1,1
circle,-0.629789257812490,132.377238867188000,"<a href=""http://www.ethnologue.com/language/kgr"" target=""_blank"">Abun</a>",kgr,Abun,,lang925,3,e3d000,Robust,fff9b5,1,1,1
circle,-4.798523404296870,145.291213001953000,"<a href=""http://www.ethnologue.com/language/kgu"" target=""_blank"">Kobol</a>",kgu,Kobol,,lang928,3,e3d000,Robust,fff9b5,1,1,1
circle,-0.791703259765654,132.670396611328000,"<a href=""http://www.ethnologue.com/language/kgw"" target=""_blank"">Karon Dori</a>",kgw,Karon Dori,,lang930,3,e3d000,Robust,fff9b5,1,1,1
circle,-6.740902494140640,-61.775521933593800,"<a href=""http://www.ethnologue.com/language/myp"" target=""_blank"">Pirahã</a>",myp,Pirahã,,lang932,3,e3d000,Robust,fff9b5,1,1,1
circle,52.963654984375000,45.479723466796900,"<a href=""http://www.ethnologue.com/language/myv"" target=""_blank"">Erzya</a>",myv,Erzya,,lang934,3,e3d000,Robust,fff9b5,1,1,1
circle,-9.120346005859400,152.766475537109000,"<a href=""http://www.ethnologue.com/language/myw"" target=""_blank"">Muyuw</a>",myw,Muyuw,,lang935,3,e3d000,Robust,fff9b5,1,1,1
circle,1.061385722656270,34.315622257812500,"<a href=""http://www.ethnologue.com/language/myx"" target=""_blank"">Masaaba</a>",myx,Masaaba,,lang936,3,e3d000,Robust,fff9b5,1,1,1
circle,16.700252761718700,-97.948394000000000,"<a href=""http://www.ethnologue.com/language/mza"" target=""_blank"">Santa María Zacatepec Mixtec</a>",mza,Santa María Zacatepec Mixtec,,lang938,3,e3d000,Robust,fff9b5,1,1,1
circle,3.536761595703130,9.735013750000010,"<a href=""http://www.ethnologue.com/language/mzd"" target=""_blank"">Malimba</a>",mzd,Malimba,,lang940,3,e3d000,Robust,fff9b5,1,1,1
circle,-10.137676046875000,148.656494730469000,"<a href=""http://www.ethnologue.com/language/mze"" target=""_blank"">Morawa</a>",mze,Morawa,,lang941,3,e3d000,Robust,fff9b5,1,1,1
circle,18.157556769531300,-96.574086833984400,"<a href=""http://www.ethnologue.com/language/mzi"" target=""_blank"">Ixcatlán Mazatec</a>",mzi,Ixcatlán Mazatec,,lang943,3,e3d000,Robust,fff9b5,1,1,1
circle,8.788861160156270,-9.314228529296880,"<a href=""http://www.ethnologue.com/language/mzj"" target=""_blank"">Manya</a>",mzj,Manya,,lang944,3,e3d000,Robust,fff9b5,1,1,1
circle,6.740656447265620,11.345666837890600,"<a href=""http://www.ethnologue.com/language/mzk"" target=""_blank"">Nigeria Mambila</a>",mzk,Nigeria Mambila,,lang945,3,e3d000,Robust,fff9b5,1,1,1
circle,17.045394582031200,-95.311752611328100,"<a href=""http://www.ethnologue.com/language/mzl"" target=""_blank"">Mazatlán Mixe</a>",mzl,Mazatlán Mixe,,lang946,3,e3d000,Robust,fff9b5,1,1,1
circle,8.871312607421880,11.513205000000000,"<a href=""http://www.ethnologue.com/language/mzm"" target=""_blank"">Mumuye</a>",mzm,Mumuye,,lang947,3,e3d000,Robust,fff9b5,1,1,1
circle,-6.632266210937530,-72.406258275390700,"<a href=""http://www.ethnologue.com/language/mzr"" target=""_blank"">Marúbo</a>",mzr,Marúbo,,lang951,3,e3d000,Robust,fff9b5,1,1,1
circle,-4.660742927734360,144.885562712891000,"<a href=""http://www.ethnologue.com/language/mzu"" target=""_blank"">Inapang</a>",mzu,Inapang,,lang953,3,e3d000,Robust,fff9b5,1,1,1
circle,6.367825320312480,18.885279525390600,"<a href=""http://www.ethnologue.com/language/mzv"" target=""_blank"">Manza</a>",mzv,Manza,,lang954,3,e3d000,Robust,fff9b5,1,1,1
circle,8.179703656250010,-1.921208886718770,"<a href=""http://www.ethnologue.com/language/mzw"" target=""_blank"">Deg</a>",mzw,Deg,,lang955,3,e3d000,Robust,fff9b5,1,1,1
circle,-9.474287242187530,150.750789978516000,"<a href=""http://www.ethnologue.com/language/mzz"" target=""_blank"">Maiadomu</a>",mzz,Maiadomu,,lang957,3,e3d000,Robust,fff9b5,1,1,1
circle,-12.874064392578100,-59.306162804687500,"<a href=""http://www.ethnologue.com/language/nab"" target=""_blank"">Southern Nambikuára</a>",nab,Southern Nambikuára,,lang959,3,e3d000,Robust,fff9b5,1,1,1
circle,-5.567922199218740,144.754210000000000,"<a href=""http://www.ethnologue.com/language/nac"" target=""_blank"">Narak</a>",nac,Narak,,lang960,3,e3d000,Robust,fff9b5,1,1,1
circle,-6.418366214843730,146.976708867188000,"<a href=""http://www.ethnologue.com/language/naf"" target=""_blank"">Nabak</a>",naf,Nabak,,lang962,3,e3d000,Robust,fff9b5,1,1,1
circle,25.878508642578100,93.741145218750000,"<a href=""http://www.ethnologue.com/language/nag"" target=""_blank"">Naga Pidgin</a>",nag,Naga Pidgin,,lang963,3,e3d000,Robust,fff9b5,1,1,1
circle,11.099758849609400,-14.788089000000000,"<a href=""http://www.ethnologue.com/language/naj"" target=""_blank"">Nalu</a>",naj,Nalu,,lang964,3,e3d000,Robust,fff9b5,1,1,1
circle,-5.325465566406250,151.038806390625000,"<a href=""http://www.ethnologue.com/language/nak"" target=""_blank"">Nakanai</a>",nak,Nakanai,,lang965,3,e3d000,Robust,fff9b5,1,1,1
circle,-2.951600955078110,151.351418658203000,"<a href=""http://www.ethnologue.com/language/nal"" target=""_blank"">Nalik</a>",nal,Nalik,,lang966,3,e3d000,Robust,fff9b5,1,1,1
circle,27.809154025390600,87.447895917968800,"<a href=""http://www.ethnologue.com/language/nao"" target=""_blank"">Naaba</a>",nao,Naaba,,lang968,3,e3d000,Robust,fff9b5,1,1,1
circle,-20.592723800781200,15.017056794921900,"<a href=""http://www.ethnologue.com/language/naq"" target=""_blank"">Nama</a>",naq,Nama,,lang969,3,e3d000,Robust,fff9b5,1,1,1
circle,9.934074054687470,8.799117937500000,"<a href=""http://www.ethnologue.com/language/nar"" target=""_blank"">Iguta</a>",nar,Iguta,,lang970,3,e3d000,Robust,fff9b5,1,1,1
circle,-6.349229486328110,155.595945367187000,"<a href=""http://www.ethnologue.com/language/nas"" target=""_blank"">Naasioi</a>",nas,Naasioi,,lang971,3,e3d000,Robust,fff9b5,1,1,1
circle,10.209397246093800,6.290587388671900,"<a href=""http://www.ethnologue.com/language/nat"" target=""_blank"">Hungworo</a>",nat,Hungworo,,lang972,3,e3d000,Robust,fff9b5,1,1,1
circle,-0.528740644531240,166.923134132812000,"<a href=""http://www.ethnologue.com/language/nau"" target=""_blank"">Nauruan</a>",nau,Nauruan,,lang973,3,e3d000,Robust,fff9b5,1,1,1
circle,8.453451142578100,0.043225253906257,"<a href=""http://www.ethnologue.com/language/naw"" target=""_blank"">Nawuri</a>",naw,Nawuri,,lang975,3,e3d000,Robust,fff9b5,1,1,1
circle,-4.269590240234380,141.597852482422000,"<a href=""http://www.ethnologue.com/language/nax"" target=""_blank"">Nakwi</a>",nax,Nakwi,,lang976,3,e3d000,Robust,fff9b5,1,1,1
circle,-14.872492345703100,16.195678568359400,"<a href=""http://www.ethnologue.com/language/nba"" target=""_blank"">Nyemba</a>",nba,Nyemba,,lang978,3,e3d000,Robust,fff9b5,1,1,1
circle,6.080608445312520,8.737511074218730,"<a href=""http://www.ethnologue.com/language/nbb"" target=""_blank"">Ndoe</a>",nbb,Ndoe,,lang979,3,e3d000,Robust,fff9b5,1,1,1
circle,26.363651966796900,94.958502500000000,"<a href=""http://www.ethnologue.com/language/nbc"" target=""_blank"">Chang Naga</a>",nbc,Chang Naga,,lang980,3,e3d000,Robust,fff9b5,1,1,1
circle,26.954915703125000,94.664455537109300,"<a href=""http://www.ethnologue.com/language/nbe"" target=""_blank"">Konyak Naga</a>",nbe,Konyak Naga,,lang981,3,e3d000,Robust,fff9b5,1,1,1
circle,11.382173085937500,11.168948958984300,"<a href=""http://www.ethnologue.com/language/nbh"" target=""_blank"">Ngamo</a>",nbh,Ngamo,,lang982,3,e3d000,Robust,fff9b5,1,1,1
circle,25.447225509765600,94.009590886718700,"<a href=""http://www.ethnologue.com/language/nbi"" target=""_blank"">Mao Naga</a>",nbi,Mao Naga,,lang983,3,e3d000,Robust,fff9b5,1,1,1
circle,-25.318148904296900,29.178045500000000,"<a href=""http://www.ethnologue.com/language/nbl"" target=""_blank"">Ndebele</a>",nbl,Ndebele,,lang986,3,e3d000,Robust,fff9b5,1,1,1
circle,3.989303394531250,18.345050099609400,"<a href=""http://www.ethnologue.com/language/nbm"" target=""_blank"">Ngbaka Ma\u0027bo</a>",nbm,Ngbaka Ma’bo,Yes,lang987,3,e3d000,Robust,fff9b5,1,1,1
circle,5.770010638671860,8.411012156250020,"<a href=""http://www.ethnologue.com/language/nbo"" target=""_blank"">Nkukoli</a>",nbo,Nkukoli,,lang989,3,e3d000,Robust,fff9b5,1,1,1
circle,6.310448695312520,8.562380023437470,"<a href=""http://www.ethnologue.com/language/nbp"" target=""_blank"">Nnam</a>",nbp,Nnam,,lang990,3,e3d000,Robust,fff9b5,1,1,1
circle,-3.605985083984360,138.952798386719000,"<a href=""http://www.ethnologue.com/language/nbq"" target=""_blank"">Nggem</a>",nbq,Nggem,,lang991,3,e3d000,Robust,fff9b5,1,1,1
circle,9.264134132812500,8.379190167968770,"<a href=""http://www.ethnologue.com/language/nbr"" target=""_blank"">Numana-Nunku-Gbantu-Numbu</a>",nbr,Numana-Nunku-Gbantu-Numbu,,lang992,3,e3d000,Robust,fff9b5,1,1,1
circle,28.447873691406200,93.371238824218700,"<a href=""http://www.ethnologue.com/language/nbt"" target=""_blank"">Na</a>",nbt,Na,,lang993,3,e3d000,Robust,fff9b5,1,1,1
circle,25.309767087890600,93.890653787109400,"<a href=""http://www.ethnologue.com/language/nbu"" target=""_blank"">Rongmei Naga</a>",nbu,Rongmei Naga,,lang994,3,e3d000,Robust,fff9b5,1,1,1
circle,2.606657166015620,19.831915500000000,"<a href=""http://www.ethnologue.com/language/nbw"" target=""_blank"">Southern Ngbandi</a>",nbw,Southern Ngbandi,,lang996,3,e3d000,Robust,fff9b5,1,1,1
circle,-5.902488003906230,146.088662060547000,"<a href=""http://www.ethnologue.com/language/nca"" target=""_blank"">Iyo</a>",nca,Iyo,,lang998,3,e3d000,Robust,fff9b5,1,1,1
circle,7.940672880859380,93.385928017578100,"<a href=""http://www.ethnologue.com/language/ncb"" target=""_blank"">Central Nicobarese</a>",ncb,Central Nicobarese,,lang999,3,e3d000,Robust,fff9b5,1,1,1
circle,-1.919468664062490,146.893429500000000,"<a href=""http://www.ethnologue.com/language/ncc"" target=""_blank"">Ponam</a>",ncc,Ponam,,lang1000,3,e3d000,Robust,fff9b5,1,1,1
circle,-3.762157486328130,141.524885683594000,"<a href=""http://www.ethnologue.com/language/nce"" target=""_blank"">Yale</a>",nce,Yale,,lang1002,3,e3d000,Robust,fff9b5,1,1,1
circle,-3.056153765625030,151.660306101562000,"<a href=""http://www.ethnologue.com/language/ncf"" target=""_blank"">Notsi</a>",ncf,Notsi,,lang1003,3,e3d000,Robust,fff9b5,1,1,1
circle,21.061281718750000,-98.425053199218800,"<a href=""http://www.ethnologue.com/language/nch"" target=""_blank"">Central Huasteca Nahuatl</a>",nch,Central Huasteca Nahuatl,,lang1005,3,e3d000,Robust,fff9b5,1,1,1
circle,20.134467804687500,-97.989851750000000,"<a href=""http://www.ethnologue.com/language/ncj"" target=""_blank"">Northern Puebla Nahuatl</a>",ncj,Northern Puebla Nahuatl,,lang1006,3,e3d000,Robust,fff9b5,1,1,1
circle,-8.746375357421870,141.926944677734000,"<a href=""http://www.ethnologue.com/language/ncm"" target=""_blank"">Nambo</a>",ncm,Nambo,,lang1009,3,e3d000,Robust,fff9b5,1,1,1
circle,9.659918902343750,3.022109673828140,"<a href=""http://www.ethnologue.com/language/fue"" target=""_blank"">Borgu Fulfulde</a>",fue,Borgu Fulfulde,,lang1144,3,e3d000,Robust,fff9b5,1,1,1
circle,11.382120503906300,-12.454098974609400,"<a href=""http://www.ethnologue.com/language/fuf"" target=""_blank"">Pular</a>",fuf,Pular,,lang1145,3,e3d000,Robust,fff9b5,1,1,1
circle,13.779334972656300,2.296712500000010,"<a href=""http://www.ethnologue.com/language/fuh"" target=""_blank"">Gorgal Fulfulde</a>",fuh,Gorgal Fulfulde,,lang1146,3,e3d000,Robust,fff9b5,1,1,1
circle,6.663834867187520,11.109182044921900,"<a href=""http://www.ethnologue.com/language/fum"" target=""_blank"">Fum</a>",fum,Fum,,lang1148,3,e3d000,Robust,fff9b5,1,1,1
circle,14.927335648437500,7.717026587890640,"<a href=""http://www.ethnologue.com/language/fuq"" target=""_blank"">Central-Eastern Niger Fulfulde</a>",fuq,Central-Eastern Niger Fulfulde,,lang1150,3,e3d000,Robust,fff9b5,1,1,1
circle,-19.526789796875000,170.215004601562000,"<a href=""http://www.ethnologue.com/language/fut"" target=""_blank"">Futuna-Aniwa</a>",fut,Futuna-Aniwa,,lang1151,3,e3d000,Robust,fff9b5,1,1,1
circle,4.463099732421880,20.353405867187500,"<a href=""http://www.ethnologue.com/language/fuu"" target=""_blank"">Furu</a>",fuu,Furu,,lang1152,3,e3d000,Robust,fff9b5,1,1,1
circle,11.691537265625000,14.849920320312500,"<a href=""http://www.ethnologue.com/language/fuv"" target=""_blank"">Kano-Katsina-Bororro Fulfulde</a>",fuv,Kano-Katsina-Bororro Fulfulde,,lang1153,3,e3d000,Robust,fff9b5,1,1,1
circle,-8.658294332031230,147.265525310547000,"<a href=""http://www.ethnologue.com/language/fuy"" target=""_blank"">Fuyug</a>",fuy,Fuyug,,lang1154,3,e3d000,Robust,fff9b5,1,1,1
circle,12.806266402343700,24.499058558593700,"<a href=""http://www.ethnologue.com/language/fvr"" target=""_blank"">Fur</a>",fvr,Fur,,lang1155,3,e3d000,Robust,fff9b5,1,1,1
circle,-17.765561253906200,24.387232861328100,"<a href=""http://www.ethnologue.com/language/fwe"" target=""_blank"">Fwe</a>",fwe,Fwe,,lang1157,3,e3d000,Robust,fff9b5,1,1,1
circle,5.654875660156220,-0.185989500000005,"<a href=""http://www.ethnologue.com/language/gaa"" target=""_blank"">Ga</a>",gaa,Ga,,lang1158,3,e3d000,Robust,fff9b5,1,1,1
circle,9.340486037109370,16.618303722656300,"<a href=""http://www.ethnologue.com/language/gab"" target=""_blank"">Gabri</a>",gab,Gabri,,lang1159,3,e3d000,Robust,fff9b5,1,1,1
circle,16.549571251953100,121.172335480469000,"<a href=""http://www.ethnologue.com/language/gad"" target=""_blank"">Gaddang</a>",gad,Gaddang,,lang1161,3,e3d000,Robust,fff9b5,1,1,1
circle,-5.703689695312510,145.177234718750000,"<a href=""http://www.ethnologue.com/language/gaf"" target=""_blank"">Gende</a>",gaf,Gende,,lang1163,3,e3d000,Robust,fff9b5,1,1,1
circle,46.105606113281200,28.729936500000000,"<a href=""http://www.ethnologue.com/language/gag"" target=""_blank"">Gagauz</a>",gag,Gagauz,,lang1164,3,e3d000,Robust,fff9b5,1,1,1
circle,-4.083590533203110,144.698238128906000,"<a href=""http://www.ethnologue.com/language/gai"" target=""_blank"">Mbore</a>",gai,Mbore,,lang1166,3,e3d000,Robust,fff9b5,1,1,1
circle,-6.299544603515640,146.039744599609000,"<a href=""http://www.ethnologue.com/language/gaj"" target=""_blank"">Gadsup</a>",gaj,Gadsup,,lang1167,3,e3d000,Robust,fff9b5,1,1,1
circle,1.344699035156220,127.504735697266000,"<a href=""http://www.ethnologue.com/language/gak"" target=""_blank"">Gamkonora</a>",gak,Gamkonora,,lang1168,3,e3d000,Robust,fff9b5,1,1,1
circle,-5.712501798828100,144.955783490234000,"<a href=""http://www.ethnologue.com/language/gam"" target=""_blank"">Kandawo</a>",gam,Kandawo,,lang1170,3,e3d000,Robust,fff9b5,1,1,1
circle,-5.273227666015600,144.765113003906000,"<a href=""http://www.ethnologue.com/language/gao"" target=""_blank"">Gants</a>",gao,Gants,,lang1171,3,e3d000,Robust,fff9b5,1,1,1
circle,-5.164681804687520,145.626310966797000,"<a href=""http://www.ethnologue.com/language/gap"" target=""_blank"">Gal</a>",gap,Gal,,lang1172,3,e3d000,Robust,fff9b5,1,1,1
circle,-9.537792599609360,150.835197927734000,"<a href=""http://www.ethnologue.com/language/gar"" target=""_blank"">Galeya</a>",gar,Galeya,,lang1174,3,e3d000,Robust,fff9b5,1,1,1
circle,24.364526296875000,72.117057076171900,"<a href=""http://www.ethnologue.com/language/gas"" target=""_blank"">Adiwasi Garasia</a>",gas,Adiwasi Garasia,,lang1175,3,e3d000,Robust,fff9b5,1,1,1
circle,-6.748928660156250,145.879922236328000,"<a href=""http://www.ethnologue.com/language/gat"" target=""_blank"">Kenati</a>",gat,Kenati,,lang1176,3,e3d000,Robust,fff9b5,1,1,1
circle,18.542947828125000,83.205933451171900,"<a href=""http://www.ethnologue.com/language/gau"" target=""_blank"">Mudhili Gadaba</a>",gau,Mudhili Gadaba,,lang1177,3,e3d000,Robust,fff9b5,1,1,1
circle,-5.085303837890650,145.716160593750000,"<a href=""http://www.ethnologue.com/language/gaw"" target=""_blank"">Nobonob</a>",gaw,Nobonob,,lang1178,3,e3d000,Robust,fff9b5,1,1,1
circle,4.581338667968740,39.270584691406300,"<a href=""http://www.ethnologue.com/language/gax"" target=""_blank"">Borana-Arsi-Guji Oromo</a>",gax,Borana-Arsi-Guji Oromo,,lang1179,3,e3d000,Robust,fff9b5,1,1,1
circle,8.873349332031240,36.783695878906300,"<a href=""http://www.ethnologue.com/language/gaz"" target=""_blank"">West Central Oromo</a>",gaz,West Central Oromo,,lang1181,3,e3d000,Robust,fff9b5,1,1,1
circle,-4.746014042968740,142.570584250000000,"<a href=""http://www.ethnologue.com/language/gbe"" target=""_blank"">Niksek</a>",gbe,Niksek,,lang1184,3,e3d000,Robust,fff9b5,1,1,1
circle,-4.037112845703120,143.092716500000000,"<a href=""http://www.ethnologue.com/language/gbf"" target=""_blank"">Gaikundi</a>",gbf,Gaikundi,,lang1185,3,e3d000,Robust,fff9b5,1,1,1
circle,4.548736429687490,20.272892371093700,"<a href=""http://www.ethnologue.com/language/gbg"" target=""_blank"">Gbanziri</a>",gbg,Gbanziri,,lang1186,3,e3d000,Robust,fff9b5,1,1,1
circle,6.404666080078130,2.668364089843750,"<a href=""http://www.ethnologue.com/language/gbh"" target=""_blank"">Defi Gbe</a>",gbh,Defi Gbe,,lang1187,3,e3d000,Robust,fff9b5,1,1,1
circle,2.329260880859350,128.442403392578000,"<a href=""http://www.ethnologue.com/language/gbi"" target=""_blank"">Galela</a>",gbi,Galela,,lang1188,3,e3d000,Robust,fff9b5,1,1,1
circle,32.438853626953100,76.639408642578100,"<a href=""http://www.ethnologue.com/language/gbk"" target=""_blank"">Gaddi</a>",gbk,Gaddi,,lang1190,3,e3d000,Robust,fff9b5,1,1,1
circle,21.072002882812500,73.735094189453200,"<a href=""http://www.ethnologue.com/language/gbl"" target=""_blank"">Gamit</a>",gbl,Gamit,,lang1191,3,e3d000,Robust,fff9b5,1,1,1
circle,30.454201642578100,78.711810576171900,"<a href=""http://www.ethnologue.com/language/gbm"" target=""_blank"">Garhwali</a>",gbm,Garhwali,,lang1192,3,e3d000,Robust,fff9b5,1,1,1
circle,5.243411976562470,-8.081150421875010,"<a href=""http://www.ethnologue.com/language/gbo"" target=""_blank"">Northern Grebo</a>",gbo,Northern Grebo,,lang1194,3,e3d000,Robust,fff9b5,1,1,1
circle,6.772310216796880,17.616009833984400,"<a href=""http://www.ethnologue.com/language/gbp"" target=""_blank"">Gbaya-Bossangoa</a>",gbp,Gbaya-Bossangoa,,lang1195,3,e3d000,Robust,fff9b5,1,1,1
circle,6.109318931640640,16.465469763671900,"<a href=""http://www.ethnologue.com/language/gbq"" target=""_blank"">Gbaya-Bozoum</a>",gbq,Gbaya-Bozoum,,lang1196,3,e3d000,Robust,fff9b5,1,1,1
circle,10.292871988281300,7.184686417968750,"<a href=""http://www.ethnologue.com/language/gbr"" target=""_blank"">Gbagyi</a>",gbr,Gbagyi,,lang1197,3,e3d000,Robust,fff9b5,1,1,1
circle,6.547032064453110,2.033340601562490,"<a href=""http://www.ethnologue.com/language/gbs"" target=""_blank"">Gbesi Gbe</a>",gbs,Gbesi Gbe,,lang1198,3,e3d000,Robust,fff9b5,1,1,1
circle,5.266108638671880,17.385338503906300,"<a href=""http://www.ethnologue.com/language/gbv"" target=""_blank"">Gbanu</a>",gbv,Gbanu,,lang1200,3,e3d000,Robust,fff9b5,1,1,1
circle,6.380302017578120,2.533981728515640,"<a href=""http://www.ethnologue.com/language/gbx"" target=""_blank"">Eastern Xwla Gbe</a>",gbx,Eastern Xwla Gbe,,lang1201,3,e3d000,Robust,fff9b5,1,1,1
circle,9.624882517578100,6.389934999999980,"<a href=""http://www.ethnologue.com/language/gby"" target=""_blank"">Gbari</a>",gby,Gbari,,lang1202,3,e3d000,Robust,fff9b5,1,1,1
circle,-4.725308097656240,152.218582070313000,"<a href=""http://www.ethnologue.com/language/gcc"" target=""_blank"">Mali</a>",gcc,Mali,,lang1204,3,e3d000,Robust,fff9b5,1,1,1
